{
  "source": "https://www.data.jma.go.jp/eqev/data/kyoshin/jma-shindo.html",
  "updated": "令和8年3月12日現在",
  "count": 1138,
  "stations": [
    {
      "id": "00001",
      "areaName": "石狩地方北部",
      "name": "石狩市花川",
      "address": "石狩市花川北6条1-30-2（石狩市役所）",
      "latitude": 43.17167,
      "longitude": 141.315,
      "start": "199604011200",
      "end": "",
      "active": true
    },
    {
      "id": "00002",
      "areaName": "石狩地方北部",
      "name": "石狩市聚富",
      "address": "石狩市厚田区聚富256-56",
      "latitude": 43.275,
      "longitude": 141.41833,
      "start": "201210021200",
      "end": "",
      "active": true
    },
    {
      "id": "00003",
      "areaName": "石狩地方中部",
      "name": "札幌中央区北２条",
      "address": "札幌市中央区北2条西18-2（札幌管区気象台）",
      "latitude": 43.06,
      "longitude": 141.32833,
      "start": "1876",
      "end": "",
      "active": true
    },
    {
      "id": "00004",
      "areaName": "石狩地方中部",
      "name": "江別市高砂町",
      "address": "江別市高砂町6（江別市民会館）",
      "latitude": 43.10333,
      "longitude": 141.53667,
      "start": "199604011200",
      "end": "",
      "active": true
    },
    {
      "id": "00005",
      "areaName": "石狩地方南部",
      "name": "千歳市北栄",
      "address": "千歳市北栄1-10-2（北栄小学校）",
      "latitude": 42.82667,
      "longitude": 141.64167,
      "start": "199604011200",
      "end": "",
      "active": true
    },
    {
      "id": "00006",
      "areaName": "石狩地方南部",
      "name": "新千歳空港",
      "address": "千歳市美々新千歳空港内（新千歳航空測候所）",
      "latitude": 42.78333,
      "longitude": 141.67833,
      "start": "200707021200",
      "end": "",
      "active": true
    },
    {
      "id": "00007",
      "areaName": "石狩地方南部",
      "name": "恵庭市漁平",
      "address": "恵庭市漁平（千歳川河川事務所漁川ダム管理支所）",
      "latitude": 42.84333,
      "longitude": 141.44667,
      "start": "199407151200",
      "end": "",
      "active": true
    },
    {
      "id": "00008",
      "areaName": "渡島地方北部",
      "name": "八雲町大新",
      "address": "山越郡八雲町大新316-1",
      "latitude": 42.20333,
      "longitude": 140.25,
      "start": "199407151200",
      "end": "199802091100",
      "active": false
    },
    {
      "id": "00009",
      "areaName": "渡島地方北部",
      "name": "八雲町上の湯",
      "address": "二海郡八雲町上の湯70",
      "latitude": 42.12,
      "longitude": 140.36667,
      "start": "199802091100",
      "end": "",
      "active": true
    },
    {
      "id": "00010",
      "areaName": "渡島地方東部",
      "name": "函館市美原（旧）",
      "address": "函館市美原3-4-4（函館地方気象台）",
      "latitude": 41.81667,
      "longitude": 140.75333,
      "start": "1873",
      "end": "201903261200",
      "active": false
    },
    {
      "id": "00011",
      "areaName": "渡島地方東部",
      "name": "函館市尾札部町",
      "address": "函館市尾札部町1423-1",
      "latitude": 41.89,
      "longitude": 141.02833,
      "start": "199407151200",
      "end": "",
      "active": true
    },
    {
      "id": "00012",
      "areaName": "渡島地方東部",
      "name": "函館市美原",
      "address": "函館市美原3-4-4（函館地方気象台）",
      "latitude": 41.81667,
      "longitude": 140.75333,
      "start": "201903261200",
      "end": "",
      "active": true
    },
    {
      "id": "00013",
      "areaName": "渡島地方東部",
      "name": "七飯町桜町（旧）",
      "address": "亀田郡七飯町字桜町457（七飯消防署）",
      "latitude": 41.90333,
      "longitude": 140.68833,
      "start": "199604011200",
      "end": "201412171200",
      "active": false
    },
    {
      "id": "00014",
      "areaName": "渡島地方東部",
      "name": "七飯町桜町",
      "address": "亀田郡七飯町桜町2-3-1（七飯消防署）",
      "latitude": 41.90333,
      "longitude": 140.68833,
      "start": "201412171200",
      "end": "",
      "active": true
    },
    {
      "id": "00015",
      "areaName": "渡島地方東部",
      "name": "渡島森町上台町",
      "address": "茅部郡森町字上台町90-1(森測候所)",
      "latitude": 42.10667,
      "longitude": 140.56833,
      "start": "193802",
      "end": "200203021200",
      "active": false
    },
    {
      "id": "00016",
      "areaName": "渡島地方東部",
      "name": "渡島森町姫川",
      "address": "茅部郡森町字姫川120番地-11 渡島森農協農産加工研修センター（農協集出荷場）",
      "latitude": 42.06833,
      "longitude": 140.58833,
      "start": "200203021200",
      "end": "200403011200",
      "active": false
    },
    {
      "id": "00017",
      "areaName": "渡島地方東部",
      "name": "渡島森町御幸町（旧）",
      "address": "茅部郡森町字御幸町144-1（森町役場）",
      "latitude": 42.105,
      "longitude": 140.57667,
      "start": "200403011200",
      "end": "201312041200",
      "active": false
    },
    {
      "id": "00018",
      "areaName": "渡島地方東部",
      "name": "渡島森町御幸町",
      "address": "茅部郡森町字御幸町144-1（森町役場）",
      "latitude": 42.105,
      "longitude": 140.57667,
      "start": "201312041200",
      "end": "",
      "active": true
    },
    {
      "id": "00019",
      "areaName": "渡島地方西部",
      "name": "渡島松前町福山",
      "address": "松前郡松前町字福山248（松前町役場）",
      "latitude": 41.43,
      "longitude": 140.11,
      "start": "199511251500",
      "end": "",
      "active": true
    },
    {
      "id": "00020",
      "areaName": "渡島地方西部",
      "name": "渡島松前町清部",
      "address": "松前郡松前町字清部441",
      "latitude": 41.525,
      "longitude": 140.00667,
      "start": "201307301200",
      "end": "",
      "active": true
    },
    {
      "id": "00021",
      "areaName": "渡島地方西部",
      "name": "知内町小谷石",
      "address": "上磯郡知内町字小谷石514",
      "latitude": 41.53167,
      "longitude": 140.41333,
      "start": "199802091100",
      "end": "",
      "active": true
    },
    {
      "id": "00022",
      "areaName": "檜山地方",
      "name": "檜山江差町姥神（旧）",
      "address": "檜山郡江差町字姥神町167（江差特別地域気象観測所）",
      "latitude": 41.86833,
      "longitude": 140.125,
      "start": "1941",
      "end": "202009121200",
      "active": false
    },
    {
      "id": "00023",
      "areaName": "檜山地方",
      "name": "檜山江差町姥神",
      "address": "檜山郡江差町字姥神町167（江差特別地域気象観測所）",
      "latitude": 41.86833,
      "longitude": 140.125,
      "start": "202009121200",
      "end": "",
      "active": true
    },
    {
      "id": "00024",
      "areaName": "檜山地方",
      "name": "上ノ国町早川",
      "address": "檜山郡上ノ国町字早川430-1",
      "latitude": 41.68,
      "longitude": 140.05333,
      "start": "199407151200",
      "end": "199802091100",
      "active": false
    },
    {
      "id": "00025",
      "areaName": "檜山地方",
      "name": "せたな町北檜山区豊岡",
      "address": "久遠郡せたな町北檜山区豊岡233-1（北桧山中学校）",
      "latitude": 42.42333,
      "longitude": 139.87667,
      "start": "201207031200",
      "end": "",
      "active": true
    },
    {
      "id": "00026",
      "areaName": "後志地方北部",
      "name": "小樽市勝納町",
      "address": "小樽市勝納町16-13（小樽特別地域気象観測所）",
      "latitude": 43.18333,
      "longitude": 141.01667,
      "start": "1943",
      "end": "",
      "active": true
    },
    {
      "id": "00027",
      "areaName": "後志地方北部",
      "name": "積丹町日司町",
      "address": "積丹郡積丹町大字日司町262の先",
      "latitude": 43.355,
      "longitude": 140.47167,
      "start": "199407151200",
      "end": "",
      "active": true
    },
    {
      "id": "00028",
      "areaName": "後志地方北部",
      "name": "余市町朝日町",
      "address": "余市郡余市町朝日町26（余市町役場）",
      "latitude": 43.195,
      "longitude": 140.78333,
      "start": "199604011200",
      "end": "",
      "active": true
    },
    {
      "id": "00029",
      "areaName": "後志地方東部",
      "name": "倶知安町南１条",
      "address": "虻田郡倶知安町南1条東3-1（倶知安特別地域気象観測所）",
      "latitude": 42.90167,
      "longitude": 140.75667,
      "start": "1944",
      "end": "",
      "active": true
    },
    {
      "id": "00030",
      "areaName": "後志地方西部",
      "name": "島牧村江ノ島",
      "address": "島牧郡島牧村字江ノ島559-1の先",
      "latitude": 42.645,
      "longitude": 140.04167,
      "start": "199407151200",
      "end": "",
      "active": true
    },
    {
      "id": "00031",
      "areaName": "後志地方西部",
      "name": "寿都町新栄（旧）",
      "address": "寿都郡寿都町字新栄町209(寿都測候所)",
      "latitude": 42.795,
      "longitude": 140.22333,
      "start": "1884",
      "end": "200811041200",
      "active": false
    },
    {
      "id": "00032",
      "areaName": "後志地方西部",
      "name": "寿都町新栄",
      "address": "寿都郡寿都町字新栄町209（寿都特別地域気象観測所）",
      "latitude": 42.795,
      "longitude": 140.225,
      "start": "200811041200",
      "end": "",
      "active": true
    },
    {
      "id": "00033",
      "areaName": "後志地方西部",
      "name": "岩内町清住（旧）",
      "address": "岩内郡岩内町字清住258（岩内町役場）",
      "latitude": 42.97833,
      "longitude": 140.51,
      "start": "199604011200",
      "end": "201505281200",
      "active": false
    },
    {
      "id": "00034",
      "areaName": "後志地方西部",
      "name": "岩内町高台",
      "address": "岩内郡岩内町字高台134番地1",
      "latitude": 42.98,
      "longitude": 140.515,
      "start": "201505281200",
      "end": "",
      "active": true
    },
    {
      "id": "00035",
      "areaName": "北海道奥尻島",
      "name": "奥尻町米岡",
      "address": "奥尻郡奥尻町字米岡57-2",
      "latitude": 42.07,
      "longitude": 139.44167,
      "start": "199504131500",
      "end": "200011301200",
      "active": false
    },
    {
      "id": "00036",
      "areaName": "北海道奥尻島",
      "name": "奥尻町松江",
      "address": "奥尻郡奥尻町字松江503",
      "latitude": 42.085,
      "longitude": 139.47,
      "start": "200011301200",
      "end": "",
      "active": true
    },
    {
      "id": "00037",
      "areaName": "北海道奥尻島",
      "name": "奥尻町奥尻（臨時）",
      "address": "奥尻町字奥尻806(役場)",
      "latitude": 42.17,
      "longitude": 139.51333,
      "start": "199307151700",
      "end": "199504131500",
      "active": false
    },
    {
      "id": "00038",
      "areaName": "空知地方北部",
      "name": "鷹泊通報所",
      "address": "北海道深川市多度志町鷹泊字ヌツプホロマップ",
      "latitude": 43.90167,
      "longitude": 142.09667,
      "start": "19591001",
      "end": "19750125",
      "active": false
    },
    {
      "id": "00039",
      "areaName": "空知地方北部",
      "name": "北竜町竜西",
      "address": "雨竜郡北竜町字竜西",
      "latitude": 43.745,
      "longitude": 141.72167,
      "start": "199407151200",
      "end": "",
      "active": true
    },
    {
      "id": "00040",
      "areaName": "空知地方北部",
      "name": "石狩沼田通報所",
      "address": "北海道沼田町字旭町",
      "latitude": 43.80167,
      "longitude": 141.94667,
      "start": "19591001",
      "end": "19780401",
      "active": false
    },
    {
      "id": "00041",
      "areaName": "空知地方中部",
      "name": "芦別市旭町",
      "address": "芦別市旭町543",
      "latitude": 43.50667,
      "longitude": 142.22,
      "start": "199407151200",
      "end": "",
      "active": true
    },
    {
      "id": "00042",
      "areaName": "空知地方中部",
      "name": "滝川市大町",
      "address": "滝川市大町1-2-15（滝川市役所）",
      "latitude": 43.55667,
      "longitude": 141.91,
      "start": "199604011200",
      "end": "",
      "active": true
    },
    {
      "id": "00043",
      "areaName": "空知地方中部",
      "name": "滝川通報所",
      "address": "北海道滝川市字南滝の川",
      "latitude": 43.56833,
      "longitude": 141.94667,
      "start": "19581001",
      "end": "不明",
      "active": false
    },
    {
      "id": "00044",
      "areaName": "空知地方南部",
      "name": "夕張市若菜",
      "address": "夕張市若菜2（ゆうばり文化スポーツセンター）",
      "latitude": 43.02833,
      "longitude": 141.965,
      "start": "199604011200",
      "end": "",
      "active": true
    },
    {
      "id": "00045",
      "areaName": "空知地方南部",
      "name": "夕張通報所",
      "address": "北海道夕張市富野",
      "latitude": 43.03667,
      "longitude": 141.96333,
      "start": "19631001",
      "end": "19780401",
      "active": false
    },
    {
      "id": "00046",
      "areaName": "空知地方南部",
      "name": "岩見沢市５条",
      "address": "岩見沢市5条東15-7-7（岩見沢特別地域気象観測所）",
      "latitude": 43.21333,
      "longitude": 141.785,
      "start": "1947",
      "end": "",
      "active": true
    },
    {
      "id": "00047",
      "areaName": "空知地方南部",
      "name": "美唄市西４条",
      "address": "美唄市西4条南1丁目",
      "latitude": 43.33333,
      "longitude": 141.85,
      "start": "199604011200",
      "end": "200011301200",
      "active": false
    },
    {
      "id": "00048",
      "areaName": "空知地方南部",
      "name": "美唄市西５条",
      "address": "美唄市西5条南1-1-1（美唄市総合体育館）",
      "latitude": 43.335,
      "longitude": 141.84667,
      "start": "200011301200",
      "end": "",
      "active": true
    },
    {
      "id": "00049",
      "areaName": "上川地方北部",
      "name": "士別市東６条（旧）",
      "address": "士別市東6条4-1（士別市役所）",
      "latitude": 44.17833,
      "longitude": 142.4,
      "start": "199604011200",
      "end": "201910301200",
      "active": false
    },
    {
      "id": "00050",
      "areaName": "上川地方北部",
      "name": "士別市朝日町",
      "address": "士別市朝日町中央4034-36",
      "latitude": 44.11833,
      "longitude": 142.59333,
      "start": "199407151200",
      "end": "",
      "active": true
    },
    {
      "id": "00051",
      "areaName": "上川地方北部",
      "name": "士別市東６条",
      "address": "士別市東6条6-60-1",
      "latitude": 44.17667,
      "longitude": 142.40167,
      "start": "201910301200",
      "end": "",
      "active": true
    },
    {
      "id": "00052",
      "areaName": "上川地方北部",
      "name": "名寄市大通",
      "address": "名寄市大通南1-1（名寄市役所）",
      "latitude": 44.355,
      "longitude": 142.46333,
      "start": "199604011200",
      "end": "",
      "active": true
    },
    {
      "id": "00053",
      "areaName": "上川地方北部",
      "name": "名寄通報所",
      "address": "名寄市大橋63番地の3",
      "latitude": 44.37333,
      "longitude": 142.455,
      "start": "19590501",
      "end": "不明",
      "active": false
    },
    {
      "id": "00054",
      "areaName": "上川地方中部",
      "name": "旭川市８条通",
      "address": "旭川市8条通11-2191-95(旭川地方気象台)",
      "latitude": 43.77167,
      "longitude": 142.37,
      "start": "1889",
      "end": "200410011200",
      "active": false
    },
    {
      "id": "00055",
      "areaName": "上川地方中部",
      "name": "旭川市宮前１条",
      "address": "旭川市宮前1条3-3-15（旭川地方気象台）",
      "latitude": 43.75833,
      "longitude": 142.37333,
      "start": "200410011200",
      "end": "",
      "active": true
    },
    {
      "id": "00056",
      "areaName": "上川地方中部",
      "name": "上川町白川",
      "address": "上川郡上川町字白川88",
      "latitude": 43.81333,
      "longitude": 142.84333,
      "start": "199407151200",
      "end": "199712191400",
      "active": false
    },
    {
      "id": "00057",
      "areaName": "上川地方中部",
      "name": "上川地方上川町越路",
      "address": "上川郡上川町字越路688-1",
      "latitude": 43.87667,
      "longitude": 142.74333,
      "start": "199712191400",
      "end": "",
      "active": true
    },
    {
      "id": "00058",
      "areaName": "上川地方南部",
      "name": "富良野市若松町",
      "address": "富良野市若松町5-10（市立富良野図書館）",
      "latitude": 43.345,
      "longitude": 142.385,
      "start": "199604011200",
      "end": "",
      "active": true
    },
    {
      "id": "00059",
      "areaName": "上川地方南部",
      "name": "富良野通報所",
      "address": "北海道富良野市西扇山東5線南1号",
      "latitude": 43.33667,
      "longitude": 142.39667,
      "start": "19581001",
      "end": "19780331",
      "active": false
    },
    {
      "id": "00060",
      "areaName": "上川地方南部",
      "name": "上富良野町大町",
      "address": "空知郡上富良野町大町2-2-11（上富良野町役場）",
      "latitude": 43.455,
      "longitude": 142.46667,
      "start": "199604011200",
      "end": "",
      "active": true
    },
    {
      "id": "00061",
      "areaName": "上川地方南部",
      "name": "南富良野町幾寅",
      "address": "空知郡南富良野町幾寅2209",
      "latitude": 43.16667,
      "longitude": 142.59,
      "start": "199407151200",
      "end": "",
      "active": true
    },
    {
      "id": "00062",
      "areaName": "留萌地方中北部",
      "name": "羽幌町南３条",
      "address": "苫前郡羽幌町南3条4-1-1（羽幌特別地域気象観測所）",
      "latitude": 44.36333,
      "longitude": 141.70167,
      "start": "1921",
      "end": "",
      "active": true
    },
    {
      "id": "00063",
      "areaName": "留萌地方中北部",
      "name": "羽幌町焼尻",
      "address": "苫前郡羽幌町焼尻字白浜256",
      "latitude": 44.43,
      "longitude": 141.42333,
      "start": "199407151200",
      "end": "",
      "active": true
    },
    {
      "id": "00064",
      "areaName": "留萌地方中北部",
      "name": "初山別村有明",
      "address": "苫前郡初山別村有明882",
      "latitude": 44.40167,
      "longitude": 141.85,
      "start": "199407151200",
      "end": "",
      "active": true
    },
    {
      "id": "00065",
      "areaName": "留萌地方南部",
      "name": "留萌市大町（旧）",
      "address": "留萌市大町2-12(留萌測候所)",
      "latitude": 43.945,
      "longitude": 141.63333,
      "start": "1943",
      "end": "200811041200",
      "active": false
    },
    {
      "id": "00066",
      "areaName": "留萌地方南部",
      "name": "留萌市大町",
      "address": "留萌市大町2-12（留萌特別地域気象観測所）",
      "latitude": 43.94667,
      "longitude": 141.63167,
      "start": "200811041200",
      "end": "",
      "active": true
    },
    {
      "id": "00067",
      "areaName": "宗谷地方北部",
      "name": "稚内市開運（旧）",
      "address": "稚内市開運2-2-1（稚内地方気象台）",
      "latitude": 45.415,
      "longitude": 141.67833,
      "start": "193801",
      "end": "201403191200",
      "active": false
    },
    {
      "id": "00068",
      "areaName": "宗谷地方北部",
      "name": "稚内市恵北",
      "address": "稚内市大字声問村字恵北972-2-内",
      "latitude": 45.31833,
      "longitude": 141.89333,
      "start": "199601130900",
      "end": "",
      "active": true
    },
    {
      "id": "00069",
      "areaName": "宗谷地方北部",
      "name": "稚内市開運",
      "address": "稚内市開運2-2-1（稚内地方気象台）",
      "latitude": 45.415,
      "longitude": 141.67833,
      "start": "201403191200",
      "end": "",
      "active": true
    },
    {
      "id": "00070",
      "areaName": "宗谷地方北部",
      "name": "稚内公園",
      "address": "稚内市山下通稚内公園内",
      "latitude": 45.41833,
      "longitude": 141.66333,
      "start": "199407151200",
      "end": "199601130900",
      "active": false
    },
    {
      "id": "00071",
      "areaName": "宗谷地方南部",
      "name": "宗谷枝幸町本町（旧）",
      "address": "枝幸郡枝幸町本町224(北見枝幸測候所)",
      "latitude": 44.94,
      "longitude": 142.58667,
      "start": "1944",
      "end": "200410011200",
      "active": false
    },
    {
      "id": "00072",
      "areaName": "宗谷地方南部",
      "name": "宗谷枝幸町岬町",
      "address": "枝幸郡枝幸町岬町88",
      "latitude": 44.96167,
      "longitude": 142.58,
      "start": "199407151200",
      "end": "",
      "active": true
    },
    {
      "id": "00073",
      "areaName": "宗谷地方南部",
      "name": "宗谷枝幸町本町（旧２）",
      "address": "枝幸郡枝幸町本町705-9（枝幸消防署）",
      "latitude": 44.93833,
      "longitude": 142.58333,
      "start": "200410011200",
      "end": "201512091200",
      "active": false
    },
    {
      "id": "00074",
      "areaName": "宗谷地方南部",
      "name": "宗谷枝幸町本町",
      "address": "枝幸郡枝幸町本町224（北見枝幸特別地域気象観測所）",
      "latitude": 44.94,
      "longitude": 142.585,
      "start": "201512091200",
      "end": "",
      "active": true
    },
    {
      "id": "00075",
      "areaName": "北海道利尻礼文",
      "name": "礼文町上泊埼",
      "address": "礼文郡礼文町大字船泊村字ウヱントマリ142-2",
      "latitude": 45.42333,
      "longitude": 141.065,
      "start": "201307301200",
      "end": "",
      "active": true
    },
    {
      "id": "00076",
      "areaName": "北海道利尻礼文",
      "name": "利尻富士町鬼脇",
      "address": "利尻郡利尻富士町鬼脇字鬼脇316",
      "latitude": 45.14,
      "longitude": 141.30667,
      "start": "199407151200",
      "end": "",
      "active": true
    },
    {
      "id": "00077",
      "areaName": "網走地方",
      "name": "網走市台町",
      "address": "網走市台町2-1-6（網走地方気象台）",
      "latitude": 44.01833,
      "longitude": 144.28,
      "start": "1890",
      "end": "",
      "active": true
    },
    {
      "id": "00078",
      "areaName": "網走地方",
      "name": "美幌町東３条（旧）",
      "address": "網走郡美幌町字東3条北2-1（美幌町役場）",
      "latitude": 43.82333,
      "longitude": 144.10833,
      "start": "199604011200",
      "end": "201910241200",
      "active": false
    },
    {
      "id": "00079",
      "areaName": "網走地方",
      "name": "美幌町東３条",
      "address": "網走郡美幌町字東3条南5-1",
      "latitude": 43.81667,
      "longitude": 144.10333,
      "start": "201910241200",
      "end": "",
      "active": true
    },
    {
      "id": "00080",
      "areaName": "網走地方",
      "name": "斜里町本町",
      "address": "斜里郡斜里町本町12（斜里町役場）",
      "latitude": 43.91167,
      "longitude": 144.67167,
      "start": "199604011200",
      "end": "",
      "active": true
    },
    {
      "id": "00081",
      "areaName": "網走地方",
      "name": "女満別出張所",
      "address": "網走郡大空町女満別昭和62-3（地磁気観測所女満別出張所）",
      "latitude": 43.92,
      "longitude": 144.19667,
      "start": "19461001",
      "end": "不明",
      "active": false
    },
    {
      "id": "00082",
      "areaName": "北見地方",
      "name": "北見市公園町",
      "address": "北見市公園町1-38（北網圏北見文化センター）",
      "latitude": 43.81833,
      "longitude": 143.90333,
      "start": "199604011200",
      "end": "",
      "active": true
    },
    {
      "id": "00083",
      "areaName": "北見地方",
      "name": "北見市留辺蘂町上町",
      "address": "北見市留辺蘂町上町61（北見市留辺蘂総合支所）",
      "latitude": 43.78833,
      "longitude": 143.615,
      "start": "199604011200",
      "end": "202401101200",
      "active": false
    },
    {
      "id": "00084",
      "areaName": "北見地方",
      "name": "北見市常呂町吉野",
      "address": "北見市常呂町字吉野11-1",
      "latitude": 43.97333,
      "longitude": 143.905,
      "start": "200707021200",
      "end": "202111121200",
      "active": false
    },
    {
      "id": "00085",
      "areaName": "北見地方",
      "name": "北見市常呂町東浜",
      "address": "北見市常呂町東浜（常呂森林公園内）",
      "latitude": 44.11833,
      "longitude": 144.085,
      "start": "202111121200",
      "end": "",
      "active": true
    },
    {
      "id": "00086",
      "areaName": "北見地方",
      "name": "北見市留辺蘂町温根湯温泉",
      "address": "北見市留辺蘂町温根湯温泉１区410（留辺蘂町温根湯地区防災備蓄倉庫）",
      "latitude": 43.75833,
      "longitude": 143.51,
      "start": "202409271200",
      "end": "",
      "active": true
    },
    {
      "id": "00087",
      "areaName": "北見地方",
      "name": "北見市留辺蘂町温根湯温泉（旧）",
      "address": "北見市留辺蘂町温根湯温泉１区410（留辺蘂町温根湯地区防災備蓄倉庫）",
      "latitude": 43.75833,
      "longitude": 143.51,
      "start": "202401101200",
      "end": "202409271200",
      "active": false
    },
    {
      "id": "00088",
      "areaName": "北見地方",
      "name": "北見通報所",
      "address": "北海道北見市公園町",
      "latitude": 43.82,
      "longitude": 143.91333,
      "start": "19611001",
      "end": "19780405",
      "active": false
    },
    {
      "id": "00089",
      "areaName": "紋別地方",
      "name": "紋別市南が丘町（旧）",
      "address": "紋別市南が丘町1-8-6（紋別特別地域気象観測所）",
      "latitude": 44.345,
      "longitude": 143.355,
      "start": "1956",
      "end": "200910011300",
      "active": false
    },
    {
      "id": "00090",
      "areaName": "紋別地方",
      "name": "紋別市南が丘町",
      "address": "紋別市南が丘町1-8-6（紋別特別地域気象観測所）",
      "latitude": 44.345,
      "longitude": 143.355,
      "start": "200910011300",
      "end": "",
      "active": true
    },
    {
      "id": "00091",
      "areaName": "紋別地方",
      "name": "遠軽町丸瀬布金湧山",
      "address": "紋別郡遠軽町丸瀬布国有武利丸瀬布事業区26林班",
      "latitude": 44.01,
      "longitude": 143.35667,
      "start": "199407151200",
      "end": "",
      "active": true
    },
    {
      "id": "00092",
      "areaName": "紋別地方",
      "name": "雄武町雄武（旧）",
      "address": "紋別郡雄武町字雄武372-1(雄武測候所)",
      "latitude": 44.58,
      "longitude": 142.965,
      "start": "1947",
      "end": "200410011200",
      "active": false
    },
    {
      "id": "00093",
      "areaName": "紋別地方",
      "name": "雄武町雄武",
      "address": "紋別郡雄武町字雄武700（雄武町役場）",
      "latitude": 44.58333,
      "longitude": 142.96167,
      "start": "200410011200",
      "end": "",
      "active": true
    },
    {
      "id": "00094",
      "areaName": "胆振地方西部",
      "name": "胆振伊達市梅本",
      "address": "伊達市梅本町67-7（だて歴史の杜総合公園）",
      "latitude": 42.47333,
      "longitude": 140.87667,
      "start": "199604011200",
      "end": "",
      "active": true
    },
    {
      "id": "00095",
      "areaName": "胆振地方西部",
      "name": "壮瞥町壮瞥温泉",
      "address": "壮瞥町壮瞥温泉59北大有珠火山観測所",
      "latitude": 42.56,
      "longitude": 140.84167,
      "start": "200003300900",
      "end": "200004012035",
      "active": false
    },
    {
      "id": "00096",
      "areaName": "胆振地方西部",
      "name": "壮瞥町滝之町",
      "address": "壮瞥町滝之町420",
      "latitude": 42.56,
      "longitude": 140.89167,
      "start": "200004012200",
      "end": "200103221200",
      "active": false
    },
    {
      "id": "00097",
      "areaName": "胆振地方西部",
      "name": "虻田町栄町（旧）",
      "address": "虻田町字栄町63-4",
      "latitude": 42.55167,
      "longitude": 140.775,
      "start": "200005091200",
      "end": "200103221200",
      "active": false
    },
    {
      "id": "00098",
      "areaName": "胆振地方中東部",
      "name": "室蘭市山手町（旧）",
      "address": "室蘭市山手町2-6-8（室蘭地方気象台）",
      "latitude": 42.31167,
      "longitude": 140.975,
      "start": "192306",
      "end": "200906011200",
      "active": false
    },
    {
      "id": "00099",
      "areaName": "胆振地方中東部",
      "name": "室蘭市山手町",
      "address": "室蘭市山手町2-6-8（室蘭地方気象台）",
      "latitude": 42.31167,
      "longitude": 140.975,
      "start": "200906011200",
      "end": "",
      "active": true
    },
    {
      "id": "00100",
      "areaName": "胆振地方中東部",
      "name": "苫小牧市しらかば",
      "address": "苫小牧市しらかば町1-5-13(苫小牧測候所)",
      "latitude": 42.62333,
      "longitude": 141.54667,
      "start": "1942",
      "end": "200411011200",
      "active": false
    },
    {
      "id": "00101",
      "areaName": "胆振地方中東部",
      "name": "苫小牧市末広町",
      "address": "苫小牧市末広町3-9-30（苫小牧市消防署）",
      "latitude": 42.63833,
      "longitude": 141.61167,
      "start": "200411011200",
      "end": "",
      "active": true
    },
    {
      "id": "00102",
      "areaName": "胆振地方中東部",
      "name": "登別市鉱山",
      "address": "登別市鉱山町28-3",
      "latitude": 42.47167,
      "longitude": 141.035,
      "start": "199407151200",
      "end": "",
      "active": true
    },
    {
      "id": "00103",
      "areaName": "胆振地方中東部",
      "name": "白老町大町",
      "address": "白老郡白老町大町1-1-1（白老町役場）",
      "latitude": 42.55167,
      "longitude": 141.35667,
      "start": "199604011200",
      "end": "202401101200",
      "active": false
    },
    {
      "id": "00104",
      "areaName": "胆振地方中東部",
      "name": "白老町竹浦",
      "address": "白老郡白老町竹浦198-27（竹浦コミュニティセンター）",
      "latitude": 42.49333,
      "longitude": 141.255,
      "start": "202410031200",
      "end": "",
      "active": true
    },
    {
      "id": "00105",
      "areaName": "胆振地方中東部",
      "name": "白老町竹浦（旧）",
      "address": "白老郡白老町竹浦198-27（竹浦コミュニティセンター）",
      "latitude": 42.49333,
      "longitude": 141.255,
      "start": "202401101200",
      "end": "202410031200",
      "active": false
    },
    {
      "id": "00106",
      "areaName": "胆振地方中東部",
      "name": "厚真町鹿沼",
      "address": "勇払郡厚真町字鹿沼200-2",
      "latitude": 42.62333,
      "longitude": 141.92,
      "start": "201210021200",
      "end": "",
      "active": true
    },
    {
      "id": "00107",
      "areaName": "日高地方西部",
      "name": "日高門別通報所",
      "address": "北海道門別町字富川町121",
      "latitude": 42.52,
      "longitude": 142.03,
      "start": "19630101",
      "end": "19760510",
      "active": false
    },
    {
      "id": "00108",
      "areaName": "日高地方西部",
      "name": "平取町仁世宇",
      "address": "沙流郡平取町字仁世宇16-2",
      "latitude": 42.78167,
      "longitude": 142.36,
      "start": "199702031400",
      "end": "",
      "active": true
    },
    {
      "id": "00109",
      "areaName": "日高地方西部",
      "name": "平取町本町２",
      "address": "沙流郡平取町本町112-2",
      "latitude": 42.59167,
      "longitude": 142.13,
      "start": "199407151200",
      "end": "199702031400",
      "active": false
    },
    {
      "id": "00110",
      "areaName": "日高地方中部",
      "name": "新ひだか町静内ときわ町",
      "address": "日高郡新ひだか町静内ときわ町4-1-18",
      "latitude": 42.34667,
      "longitude": 142.36333,
      "start": "199604011200",
      "end": "200801151030",
      "active": false
    },
    {
      "id": "00111",
      "areaName": "日高地方中部",
      "name": "新ひだか町静内山手町",
      "address": "日高郡新ひだか町静内山手町1-45",
      "latitude": 42.345,
      "longitude": 142.36167,
      "start": "200801161500",
      "end": "",
      "active": true
    },
    {
      "id": "00112",
      "areaName": "日高地方中部",
      "name": "新ひだか町静内御園",
      "address": "日高郡新ひだか町静内御園587-1（家畜改良センター）",
      "latitude": 42.41,
      "longitude": 142.46667,
      "start": "201207031200",
      "end": "",
      "active": true
    },
    {
      "id": "00113",
      "areaName": "日高地方東部",
      "name": "浦河町潮見（旧）",
      "address": "浦河郡浦河町潮見町42（浦河測候所）",
      "latitude": 42.16167,
      "longitude": 142.77667,
      "start": "1927",
      "end": "200910011300",
      "active": false
    },
    {
      "id": "00114",
      "areaName": "日高地方東部",
      "name": "浦河町野深",
      "address": "浦河郡浦河町字野深405-75",
      "latitude": 42.28333,
      "longitude": 142.75,
      "start": "200707021200",
      "end": "",
      "active": true
    },
    {
      "id": "00115",
      "areaName": "日高地方東部",
      "name": "浦河町潮見",
      "address": "浦河郡浦河町潮見町42-6（浦河特別地域気象観測所）",
      "latitude": 42.16167,
      "longitude": 142.77667,
      "start": "200910011300",
      "end": "",
      "active": true
    },
    {
      "id": "00116",
      "areaName": "日高地方東部",
      "name": "えりも町本町",
      "address": "幌泉郡えりも町字本町592-3（北大地殻変動観測所）",
      "latitude": 42.01667,
      "longitude": 143.15333,
      "start": "199407151200",
      "end": "",
      "active": true
    },
    {
      "id": "00117",
      "areaName": "十勝地方北部",
      "name": "糠平通報所",
      "address": "北海道上士幌町字糠平",
      "latitude": 43.37,
      "longitude": 143.19667,
      "start": "19621001",
      "end": "19780405",
      "active": false
    },
    {
      "id": "00118",
      "areaName": "十勝地方北部",
      "name": "足寄町上螺湾",
      "address": "足寄郡足寄町上螺湾278",
      "latitude": 43.3,
      "longitude": 143.765,
      "start": "199407151200",
      "end": "",
      "active": true
    },
    {
      "id": "00119",
      "areaName": "十勝地方中部",
      "name": "帯広市東４条",
      "address": "帯広市東4条南9-2-1（帯広測候所）",
      "latitude": 42.92333,
      "longitude": 143.21167,
      "start": "1894",
      "end": "",
      "active": true
    },
    {
      "id": "00120",
      "areaName": "十勝地方中部",
      "name": "十勝清水町南４条",
      "address": "上川郡清水町南4条2-2（清水町役場）",
      "latitude": 43.01167,
      "longitude": 142.885,
      "start": "199604011200",
      "end": "",
      "active": true
    },
    {
      "id": "00121",
      "areaName": "十勝地方中部",
      "name": "幕別町忠類明和",
      "address": "中川郡幕別町忠類明和291-1",
      "latitude": 42.61833,
      "longitude": 143.36,
      "start": "199407151200",
      "end": "",
      "active": true
    },
    {
      "id": "00122",
      "areaName": "十勝地方中部",
      "name": "本別町北２丁目",
      "address": "中川郡本別町北2-4-1（本別消防署）",
      "latitude": 43.125,
      "longitude": 143.61167,
      "start": "199604011200",
      "end": "",
      "active": true
    },
    {
      "id": "00123",
      "areaName": "十勝地方中部",
      "name": "本別通報所",
      "address": "北海道本別町北8丁目",
      "latitude": 43.13667,
      "longitude": 143.61333,
      "start": "19601001",
      "end": "19760401",
      "active": false
    },
    {
      "id": "00124",
      "areaName": "十勝地方南部",
      "name": "広尾町並木通",
      "address": "広尾郡広尾町並木通東1-15（広尾特別地域気象観測所）",
      "latitude": 42.295,
      "longitude": 143.31667,
      "start": "19580101",
      "end": "",
      "active": true
    },
    {
      "id": "00125",
      "areaName": "十勝地方南部",
      "name": "広尾町白樺通",
      "address": "広尾郡広尾町白樺通南1丁目1番地内（コミュニティグリーンパーク）",
      "latitude": 42.29167,
      "longitude": 143.29833,
      "start": "201207031200",
      "end": "",
      "active": true
    },
    {
      "id": "00126",
      "areaName": "釧路地方北部",
      "name": "弟子屈町美里（旧）",
      "address": "川上郡弟子屈町美里2-1-1（弟子屈消防署）",
      "latitude": 43.485,
      "longitude": 144.44833,
      "start": "199604011200",
      "end": "201706071200",
      "active": false
    },
    {
      "id": "00127",
      "areaName": "釧路地方北部",
      "name": "弟子屈町美里",
      "address": "川上郡弟子屈町美里3-8-1（弟子屈消防署）",
      "latitude": 43.48167,
      "longitude": 144.43667,
      "start": "201706071200",
      "end": "",
      "active": true
    },
    {
      "id": "00128",
      "areaName": "釧路地方中南部",
      "name": "釧路市幣舞町（旧）",
      "address": "釧路市幣舞町3-14(釧路地方気象台)",
      "latitude": 42.97833,
      "longitude": 144.38833,
      "start": "18900401",
      "end": "200009271400",
      "active": false
    },
    {
      "id": "00129",
      "areaName": "釧路地方中南部",
      "name": "釧路市幸町",
      "address": "釧路市幸町10-3（釧路地方気象台）",
      "latitude": 42.98667,
      "longitude": 144.37833,
      "start": "200011301200",
      "end": "",
      "active": true
    },
    {
      "id": "00130",
      "areaName": "釧路地方中南部",
      "name": "釧路市音別町尺別",
      "address": "釧路市音別町尺別12-1",
      "latitude": 42.905,
      "longitude": 143.83167,
      "start": "199407151200",
      "end": "",
      "active": true
    },
    {
      "id": "00131",
      "areaName": "釧路地方中南部",
      "name": "釧路市幣舞町",
      "address": "釧路市幣舞町3-14(釧路地方気象台)",
      "latitude": 42.97833,
      "longitude": 144.38833,
      "start": "200009271400",
      "end": "200011301200",
      "active": false
    },
    {
      "id": "00132",
      "areaName": "釧路地方中南部",
      "name": "厚岸町尾幌",
      "address": "厚岸郡厚岸町尾幌2360",
      "latitude": 42.99667,
      "longitude": 144.69333,
      "start": "199407151200",
      "end": "",
      "active": true
    },
    {
      "id": "00133",
      "areaName": "釧路地方中南部",
      "name": "浜中町湯沸",
      "address": "厚岸郡浜中町湯沸6番地",
      "latitude": 43.08333,
      "longitude": 145.16,
      "start": "201210021200",
      "end": "",
      "active": true
    },
    {
      "id": "00134",
      "areaName": "根室地方北部",
      "name": "中標津町養老牛",
      "address": "標津郡中標津町字養老牛（国有林根釧東部森林管理署454林班な小班）",
      "latitude": 43.58833,
      "longitude": 144.715,
      "start": "199407151200",
      "end": "",
      "active": true
    },
    {
      "id": "00135",
      "areaName": "根室地方北部",
      "name": "標津町古多糠",
      "address": "標津郡標津町字古多糠678-2",
      "latitude": 43.775,
      "longitude": 145.005,
      "start": "201307301200",
      "end": "",
      "active": true
    },
    {
      "id": "00136",
      "areaName": "根室地方北部",
      "name": "羅臼町春日",
      "address": "目梨郡羅臼町春日町33",
      "latitude": 43.94,
      "longitude": 145.12,
      "start": "199407151200",
      "end": "",
      "active": true
    },
    {
      "id": "00137",
      "areaName": "根室地方中部",
      "name": "別海町常盤",
      "address": "野付郡別海町別海常盤町280（別海町役場）",
      "latitude": 43.395,
      "longitude": 145.11833,
      "start": "199604011200",
      "end": "",
      "active": true
    },
    {
      "id": "00138",
      "areaName": "根室地方南部",
      "name": "根室市弥栄",
      "address": "根室市弥栄町1-18（根室特別地域気象観測所）",
      "latitude": 43.33167,
      "longitude": 145.585,
      "start": "1880",
      "end": "",
      "active": true
    },
    {
      "id": "00139",
      "areaName": "根室地方南部",
      "name": "根室市豊里",
      "address": "根室市豊里76-5",
      "latitude": 43.36667,
      "longitude": 145.73833,
      "start": "200707021200",
      "end": "",
      "active": true
    },
    {
      "id": "00140",
      "areaName": "青森県津軽北部",
      "name": "青森市花園",
      "address": "青森市花園1-17-19（青森地方気象台）",
      "latitude": 40.82167,
      "longitude": 140.76833,
      "start": "1882",
      "end": "",
      "active": true
    },
    {
      "id": "00141",
      "areaName": "青森県津軽北部",
      "name": "五所川原市栄町",
      "address": "五所川原市栄町20-1（五所川原市民体育館）",
      "latitude": 40.8,
      "longitude": 140.44333,
      "start": "199604011200",
      "end": "",
      "active": true
    },
    {
      "id": "00142",
      "areaName": "青森県津軽北部",
      "name": "五所川原市太田",
      "address": "五所川原市太田太田山国有林524林班ろ1小班",
      "latitude": 41.06,
      "longitude": 140.40833,
      "start": "199407151200",
      "end": "",
      "active": true
    },
    {
      "id": "00143",
      "areaName": "青森県津軽北部",
      "name": "平内町小湊",
      "address": "東津軽郡平内町大字小湊字後萢20-2（町営野球場）",
      "latitude": 40.925,
      "longitude": 140.95333,
      "start": "199604011200",
      "end": "",
      "active": true
    },
    {
      "id": "00144",
      "areaName": "青森県津軽南部",
      "name": "弘前市和田町",
      "address": "弘前市大字和田町6-10（弘前地域気象観測所）",
      "latitude": 40.61167,
      "longitude": 140.455,
      "start": "199604011200",
      "end": "",
      "active": true
    },
    {
      "id": "00145",
      "areaName": "青森県津軽南部",
      "name": "弘前市弥生",
      "address": "弘前市大字百沢字東岩木山2524-1（弥生いこいの広場）",
      "latitude": 40.65167,
      "longitude": 140.35833,
      "start": "201207031200",
      "end": "",
      "active": true
    },
    {
      "id": "00146",
      "areaName": "青森県津軽南部",
      "name": "弘前通報所",
      "address": "弘前市藤代（和田）",
      "latitude": 40.61833,
      "longitude": 140.45667,
      "start": "19571201",
      "end": "不明",
      "active": false
    },
    {
      "id": "00147",
      "areaName": "青森県津軽南部",
      "name": "鰺ヶ沢町本町",
      "address": "西津軽郡鰺ヶ沢町大字本町209-2（鰺ヶ沢町役場）",
      "latitude": 40.78,
      "longitude": 140.20833,
      "start": "199604011200",
      "end": "202103171200",
      "active": false
    },
    {
      "id": "00148",
      "areaName": "青森県津軽南部",
      "name": "鰺ヶ沢町舞戸町鳴戸",
      "address": "西津軽郡鰺ヶ沢町大字舞戸町字鳴戸321（鰺ヶ沢町役場）",
      "latitude": 40.78167,
      "longitude": 140.23333,
      "start": "202103171200",
      "end": "",
      "active": true
    },
    {
      "id": "00149",
      "areaName": "青森県津軽南部",
      "name": "深浦町深浦",
      "address": "西津軽郡深浦町大字深浦字岡町210-3(深浦特別地域気象観測所)",
      "latitude": 40.64667,
      "longitude": 139.93333,
      "start": "1940",
      "end": "200712051900",
      "active": false
    },
    {
      "id": "00150",
      "areaName": "青森県津軽南部",
      "name": "深浦町長慶平",
      "address": "西津軽郡深浦町大字長慶平字仁瀬4-1",
      "latitude": 40.595,
      "longitude": 140.00333,
      "start": "199407151200",
      "end": "",
      "active": true
    },
    {
      "id": "00151",
      "areaName": "青森県津軽南部",
      "name": "深浦町深浦岡町",
      "address": "西津軽郡深浦町大字深浦字岡町210-3（深浦特別地域気象観測所）",
      "latitude": 40.64667,
      "longitude": 139.93333,
      "start": "200712051900",
      "end": "",
      "active": true
    },
    {
      "id": "00152",
      "areaName": "青森県三八上北",
      "name": "八戸市湊町（旧）",
      "address": "八戸市大字湊町字館鼻67(八戸測候所)",
      "latitude": 40.52833,
      "longitude": 141.52167,
      "start": "193607",
      "end": "200709131800",
      "active": false
    },
    {
      "id": "00153",
      "areaName": "青森県三八上北",
      "name": "八戸市島守",
      "address": "八戸市南郷大字島守字外田山1",
      "latitude": 40.37667,
      "longitude": 141.51167,
      "start": "199604011200",
      "end": "",
      "active": true
    },
    {
      "id": "00154",
      "areaName": "青森県三八上北",
      "name": "八戸市湊町",
      "address": "八戸市大字湊町字館鼻67（八戸特別地域気象観測所）",
      "latitude": 40.52833,
      "longitude": 141.52167,
      "start": "200709131800",
      "end": "",
      "active": true
    },
    {
      "id": "00155",
      "areaName": "青森県三八上北",
      "name": "七戸町北天間舘",
      "address": "上北郡七戸町字北天間舘国有林1427ろ林小班",
      "latitude": 40.79,
      "longitude": 141.065,
      "start": "199407151200",
      "end": "",
      "active": true
    },
    {
      "id": "00156",
      "areaName": "青森県三八上北",
      "name": "六ヶ所村尾駮",
      "address": "上北郡六ヶ所村大字尾駮字野附470-3地先（六ヶ所村役場）",
      "latitude": 40.96667,
      "longitude": 141.37333,
      "start": "199604011200",
      "end": "",
      "active": true
    },
    {
      "id": "00157",
      "areaName": "青森県三八上北",
      "name": "六ヶ所村出戸",
      "address": "上北郡六ヶ所村出戸字棚沢130-1（地域交流ホーム）",
      "latitude": 41.00667,
      "longitude": 141.36667,
      "start": "201207031200",
      "end": "",
      "active": true
    },
    {
      "id": "00158",
      "areaName": "青森県三八上北",
      "name": "五戸町古舘",
      "address": "三戸郡五戸町字古舘21-1（五戸町役場）",
      "latitude": 40.53167,
      "longitude": 141.30833,
      "start": "199604011200",
      "end": "",
      "active": true
    },
    {
      "id": "00159",
      "areaName": "青森県下北",
      "name": "むつ市金曲",
      "address": "むつ市金曲1-8-3（むつ特別地域気象観測所）",
      "latitude": 41.28333,
      "longitude": 141.21167,
      "start": "1935",
      "end": "",
      "active": true
    },
    {
      "id": "00160",
      "areaName": "青森県下北",
      "name": "むつ市大畑町奥薬研",
      "address": "むつ市大畑町赤滝山国有林1066林班へ小班",
      "latitude": 41.385,
      "longitude": 141.045,
      "start": "199407151200",
      "end": "",
      "active": true
    },
    {
      "id": "00161",
      "areaName": "青森県下北",
      "name": "東通村砂子又蒲谷地",
      "address": "下北郡東通村砂子又字蒲谷地4-7",
      "latitude": 41.265,
      "longitude": 141.33667,
      "start": "201207031200",
      "end": "",
      "active": true
    },
    {
      "id": "00162",
      "areaName": "岩手県沿岸北部",
      "name": "宮古市鍬ヶ崎",
      "address": "宮古市鍬ヶ崎下町2-33（宮古特別地域気象観測所）",
      "latitude": 39.64667,
      "longitude": 141.965,
      "start": "192301",
      "end": "",
      "active": true
    },
    {
      "id": "00163",
      "areaName": "岩手県沿岸北部",
      "name": "宮古市長沢",
      "address": "宮古市長沢第2地割44",
      "latitude": 39.57667,
      "longitude": 141.82,
      "start": "200707021200",
      "end": "",
      "active": true
    },
    {
      "id": "00164",
      "areaName": "岩手県沿岸北部",
      "name": "久慈市川崎町",
      "address": "久慈市川崎町1-1（久慈市役所）",
      "latitude": 40.19,
      "longitude": 141.775,
      "start": "199604011200",
      "end": "",
      "active": true
    },
    {
      "id": "00165",
      "areaName": "岩手県沿岸北部",
      "name": "久慈市枝成沢",
      "address": "久慈市枝成沢第19地割76（久慈市立中央公民館枝成沢分館）",
      "latitude": 40.205,
      "longitude": 141.71,
      "start": "201210021200",
      "end": "",
      "active": true
    },
    {
      "id": "00166",
      "areaName": "岩手県沿岸北部",
      "name": "山田町八幡町（旧）",
      "address": "下閉伊郡山田町八幡町3-20（山田町役場）",
      "latitude": 39.46833,
      "longitude": 141.95,
      "start": "199604011200",
      "end": "201104141800",
      "active": false
    },
    {
      "id": "00167",
      "areaName": "岩手県沿岸北部",
      "name": "山田町八幡町",
      "address": "下閉伊郡山田町八幡町3-20（山田町役場）",
      "latitude": 39.46833,
      "longitude": 141.95,
      "start": "201108301200",
      "end": "",
      "active": true
    },
    {
      "id": "00168",
      "areaName": "岩手県沿岸北部",
      "name": "山田町八幡町（旧２）",
      "address": "下閉伊郡山田町八幡町3-20（山田町役場）",
      "latitude": 39.46833,
      "longitude": 141.95,
      "start": "201104141800",
      "end": "201108301200",
      "active": false
    },
    {
      "id": "00169",
      "areaName": "岩手県沿岸北部",
      "name": "田野畑村田野畑",
      "address": "下閉伊郡田野畑村田野畑414",
      "latitude": 39.94167,
      "longitude": 141.86,
      "start": "199407151200",
      "end": "",
      "active": true
    },
    {
      "id": "00170",
      "areaName": "岩手県沿岸北部",
      "name": "岩手洋野町種市",
      "address": "九戸郡洋野町種市第23地割27（洋野町役場種市庁舎）",
      "latitude": 40.40833,
      "longitude": 141.71833,
      "start": "199604011200",
      "end": "",
      "active": true
    },
    {
      "id": "00171",
      "areaName": "岩手県沿岸南部",
      "name": "大船渡市大船渡町",
      "address": "大船渡市大船渡町字赤沢17-3（大船渡特別地域気象観測所）",
      "latitude": 39.065,
      "longitude": 141.715,
      "start": "196307",
      "end": "",
      "active": true
    },
    {
      "id": "00172",
      "areaName": "岩手県沿岸南部",
      "name": "大船渡市猪川町",
      "address": "大船渡市猪川町字西山5",
      "latitude": 39.08333,
      "longitude": 141.665,
      "start": "199407151200",
      "end": "",
      "active": true
    },
    {
      "id": "00173",
      "areaName": "岩手県沿岸南部",
      "name": "釜石市只越町",
      "address": "釜石市只越町3-9-13（釜石市役所）",
      "latitude": 39.27667,
      "longitude": 141.885,
      "start": "199604011200",
      "end": "",
      "active": true
    },
    {
      "id": "00174",
      "areaName": "岩手県内陸北部",
      "name": "盛岡市山王町",
      "address": "盛岡市山王町7-60（盛岡地方気象台）",
      "latitude": 39.69833,
      "longitude": 141.165,
      "start": "19230901",
      "end": "",
      "active": true
    },
    {
      "id": "00175",
      "areaName": "岩手県内陸北部",
      "name": "好摩通報所",
      "address": "盛岡市玉山区好摩",
      "latitude": 39.875,
      "longitude": 141.16833,
      "start": "19550301",
      "end": "不明",
      "active": false
    },
    {
      "id": "00176",
      "areaName": "岩手県内陸北部",
      "name": "二戸市福岡（旧）",
      "address": "二戸市福岡字川又47（二戸市役所）",
      "latitude": 40.27167,
      "longitude": 141.305,
      "start": "199604011200",
      "end": "200908211500",
      "active": false
    },
    {
      "id": "00177",
      "areaName": "岩手県内陸北部",
      "name": "二戸市福岡",
      "address": "二戸市福岡字下川又15（福岡小学校）",
      "latitude": 40.27167,
      "longitude": 141.30333,
      "start": "201003311300",
      "end": "",
      "active": true
    },
    {
      "id": "00178",
      "areaName": "岩手県内陸北部",
      "name": "二戸市福岡（旧２）",
      "address": "二戸市福岡字川又47（二戸市役所）",
      "latitude": 40.27167,
      "longitude": 141.305,
      "start": "200909011500",
      "end": "201003311300",
      "active": false
    },
    {
      "id": "00179",
      "areaName": "岩手県内陸北部",
      "name": "雫石町千刈田（旧）",
      "address": "岩手郡雫石町千刈田5-1（雫石町役場）",
      "latitude": 39.69667,
      "longitude": 140.97667,
      "start": "199604011200",
      "end": "200908211500",
      "active": false
    },
    {
      "id": "00180",
      "areaName": "岩手県内陸北部",
      "name": "雫石町千刈田",
      "address": "岩手郡雫石町千刈田5-4（雫石町勤労青少年ホーム）",
      "latitude": 39.69667,
      "longitude": 140.97667,
      "start": "201003311300",
      "end": "",
      "active": true
    },
    {
      "id": "00181",
      "areaName": "岩手県内陸北部",
      "name": "雫石町西根上駒木野",
      "address": "岩手郡雫石町西根上駒木野320-2（旧町立西根小学校）",
      "latitude": 39.74167,
      "longitude": 140.95333,
      "start": "201207031200",
      "end": "",
      "active": true
    },
    {
      "id": "00182",
      "areaName": "岩手県内陸北部",
      "name": "雫石町長山",
      "address": "雫石町大字長山",
      "latitude": 39.82,
      "longitude": 140.94667,
      "start": "199805011800",
      "end": "200410011200",
      "active": false
    },
    {
      "id": "00183",
      "areaName": "岩手県内陸北部",
      "name": "雫石町千刈田（旧２）",
      "address": "岩手郡雫石町千刈田5-1（雫石町役場）",
      "latitude": 39.69667,
      "longitude": 140.97667,
      "start": "200908211500",
      "end": "201003311300",
      "active": false
    },
    {
      "id": "00184",
      "areaName": "岩手県内陸北部",
      "name": "雫石通報所",
      "address": "岩手県雫石町36地割字柿木",
      "latitude": 39.70333,
      "longitude": 140.96333,
      "start": "19541101",
      "end": "不明",
      "active": false
    },
    {
      "id": "00185",
      "areaName": "岩手県内陸北部",
      "name": "葛巻町葛巻元木",
      "address": "岩手郡葛巻町葛巻第39地割字元木218",
      "latitude": 39.98667,
      "longitude": 141.32667,
      "start": "199407151200",
      "end": "",
      "active": true
    },
    {
      "id": "00186",
      "areaName": "岩手県内陸北部",
      "name": "八幡平市大更",
      "address": "八幡平市大更第35地割62（旧八幡平市役所西根総合支所）",
      "latitude": 39.92667,
      "longitude": 141.095,
      "start": "199604011200",
      "end": "",
      "active": true
    },
    {
      "id": "00187",
      "areaName": "岩手県内陸南部",
      "name": "花巻市大迫町",
      "address": "花巻市大迫町大迫9-63",
      "latitude": 39.47833,
      "longitude": 141.29,
      "start": "199407151200",
      "end": "",
      "active": true
    },
    {
      "id": "00188",
      "areaName": "岩手県内陸南部",
      "name": "花巻通報所",
      "address": "花巻市",
      "latitude": 39.38167,
      "longitude": 141.275,
      "start": "19580801",
      "end": "不明",
      "active": false
    },
    {
      "id": "00189",
      "areaName": "岩手県内陸南部",
      "name": "田瀬通報所",
      "address": "花巻市東和町田瀬",
      "latitude": 39.34333,
      "longitude": 141.32333,
      "start": "19550301",
      "end": "不明",
      "active": false
    },
    {
      "id": "00190",
      "areaName": "岩手県内陸南部",
      "name": "北上市柳原町",
      "address": "北上市柳原町2-3-6（北上消防署）",
      "latitude": 39.29333,
      "longitude": 141.11,
      "start": "199604011200",
      "end": "",
      "active": true
    },
    {
      "id": "00191",
      "areaName": "岩手県内陸南部",
      "name": "一関市舞川",
      "address": "一関市舞川字番台11",
      "latitude": 38.955,
      "longitude": 141.21667,
      "start": "199407151200",
      "end": "200908211500",
      "active": false
    },
    {
      "id": "00192",
      "areaName": "岩手県内陸南部",
      "name": "一関市大東町（旧）",
      "address": "一関市大東町大原字川内40（一関市役所大東支所）",
      "latitude": 39.01833,
      "longitude": 141.39667,
      "start": "199604011200",
      "end": "201503301200",
      "active": false
    },
    {
      "id": "00193",
      "areaName": "岩手県内陸南部",
      "name": "一関市大東町",
      "address": "一関市大東町大原字川内96-1（一関市役所大東支所）",
      "latitude": 39.01667,
      "longitude": 141.395,
      "start": "201503301200",
      "end": "",
      "active": true
    },
    {
      "id": "00194",
      "areaName": "岩手県内陸南部",
      "name": "一関通報所",
      "address": "岩手県一関市釣山1-9",
      "latitude": 38.92,
      "longitude": 141.13,
      "start": "19551201",
      "end": "不明",
      "active": false
    },
    {
      "id": "00195",
      "areaName": "岩手県内陸南部",
      "name": "湯田通報所",
      "address": "岩手県湯田町第39地割160-4",
      "latitude": 39.30333,
      "longitude": 140.78,
      "start": "19591101",
      "end": "不明",
      "active": false
    },
    {
      "id": "00196",
      "areaName": "岩手県内陸南部",
      "name": "奥州市水沢大鐘町",
      "address": "奥州市水沢大鐘町2-16（水沢消防署）",
      "latitude": 39.13,
      "longitude": 141.13833,
      "start": "199604011200",
      "end": "",
      "active": true
    },
    {
      "id": "00197",
      "areaName": "岩手県内陸南部",
      "name": "水沢観測所",
      "address": "水沢市星ガ丘町（緯度観測所）",
      "latitude": 39.13667,
      "longitude": 141.13,
      "start": "18991201",
      "end": "1968",
      "active": false
    },
    {
      "id": "00198",
      "areaName": "岩手県内陸南部",
      "name": "衣川通報所",
      "address": "奥州市",
      "latitude": 39.045,
      "longitude": 141.06667,
      "start": "19550201",
      "end": "不明",
      "active": false
    },
    {
      "id": "00199",
      "areaName": "岩手県内陸南部",
      "name": "石淵通報所",
      "address": "奥州市",
      "latitude": 39.11667,
      "longitude": 140.90667,
      "start": "19550301",
      "end": "不明",
      "active": false
    },
    {
      "id": "00200",
      "areaName": "宮城県北部",
      "name": "気仙沼市赤岩",
      "address": "気仙沼市赤岩五駄鱈43-2（気仙沼・本吉広域防災センター）",
      "latitude": 38.88,
      "longitude": 141.575,
      "start": "199604011200",
      "end": "",
      "active": true
    },
    {
      "id": "00201",
      "areaName": "宮城県北部",
      "name": "気仙沼市本吉町西川内",
      "address": "気仙沼市本吉町西川内87-1",
      "latitude": 38.81,
      "longitude": 141.47333,
      "start": "201210021200",
      "end": "",
      "active": true
    },
    {
      "id": "00202",
      "areaName": "宮城県北部",
      "name": "涌谷町新町裏",
      "address": "遠田郡涌谷町字新町裏136（涌谷町役場）",
      "latitude": 38.54,
      "longitude": 141.12667,
      "start": "199604011200",
      "end": "",
      "active": true
    },
    {
      "id": "00203",
      "areaName": "宮城県北部",
      "name": "栗原市栗駒",
      "address": "栗原市栗駒岩ヶ崎松木田79（みちのく伝創館）",
      "latitude": 38.82667,
      "longitude": 140.99167,
      "start": "199604121500",
      "end": "",
      "active": true
    },
    {
      "id": "00204",
      "areaName": "宮城県北部",
      "name": "栗駒町沼倉",
      "address": "栗駒町沼倉",
      "latitude": 38.88667,
      "longitude": 140.94667,
      "start": "199604121500",
      "end": "199611291200",
      "active": false
    },
    {
      "id": "00205",
      "areaName": "宮城県北部",
      "name": "築館通報所",
      "address": "宮城県築館町字伊豆町313",
      "latitude": 38.73667,
      "longitude": 141.03,
      "start": "不明",
      "end": "不明",
      "active": false
    },
    {
      "id": "00206",
      "areaName": "宮城県北部",
      "name": "登米市中田町",
      "address": "登米市中田町宝江黒沼大海崎6",
      "latitude": 38.71,
      "longitude": 141.235,
      "start": "199604011200",
      "end": "",
      "active": true
    },
    {
      "id": "00207",
      "areaName": "宮城県北部",
      "name": "南三陸町志津川（旧）",
      "address": "本吉郡南三陸町志津川字塩入77（南三陸町防災対策庁舎）",
      "latitude": 38.67833,
      "longitude": 141.44667,
      "start": "199604011200",
      "end": "201104051900",
      "active": false
    },
    {
      "id": "00208",
      "areaName": "宮城県北部",
      "name": "南三陸町志津川（旧３）",
      "address": "本吉郡南三陸町志津川字沼田56-2（南三陸町仮庁舎）",
      "latitude": 38.68,
      "longitude": 141.46,
      "start": "201206281200",
      "end": "202109281200",
      "active": false
    },
    {
      "id": "00209",
      "areaName": "宮城県北部",
      "name": "南三陸町志津川",
      "address": "本吉郡南三陸町志津川袖浜29-7（旧南三陸町被災者生活支援センター）",
      "latitude": 38.67833,
      "longitude": 141.46167,
      "start": "202201251200",
      "end": "",
      "active": true
    },
    {
      "id": "00210",
      "areaName": "宮城県北部",
      "name": "南三陸町志津川（旧２）",
      "address": "本吉郡南三陸町志津川字助作1-1（志津川中学校）",
      "latitude": 38.68667,
      "longitude": 141.44333,
      "start": "201104051900",
      "end": "201206281200",
      "active": false
    },
    {
      "id": "00211",
      "areaName": "宮城県北部",
      "name": "南三陸町歌津（臨時）",
      "address": "本吉郡南三陸町歌津字吉野沢61番地63（南三陸町資料庫）",
      "latitude": 38.72833,
      "longitude": 141.51167,
      "start": "201211151600",
      "end": "201303261200",
      "active": false
    },
    {
      "id": "00212",
      "areaName": "宮城県北部",
      "name": "南三陸町志津川（旧４）",
      "address": "本吉郡南三陸町志津川字沼田101（南三陸町役場防災倉庫）",
      "latitude": 38.68167,
      "longitude": 141.46333,
      "start": "202109281200",
      "end": "202201251200",
      "active": false
    },
    {
      "id": "00213",
      "areaName": "宮城県北部",
      "name": "大崎市古川三日町",
      "address": "大崎市古川三日町1-63-3（三日町公園）",
      "latitude": 38.57333,
      "longitude": 140.95667,
      "start": "199604011200",
      "end": "",
      "active": true
    },
    {
      "id": "00214",
      "areaName": "宮城県北部",
      "name": "大崎市古川大崎",
      "address": "大崎市古川大崎字富国263-1（宮城県古川農業試験場）",
      "latitude": 38.60167,
      "longitude": 140.91167,
      "start": "201210021200",
      "end": "",
      "active": true
    },
    {
      "id": "00215",
      "areaName": "宮城県北部",
      "name": "大崎市鳴子（臨時）",
      "address": "大崎市鳴子温泉字新屋敷65（大崎市鳴子総合支所）",
      "latitude": 38.745,
      "longitude": 140.71833,
      "start": "201211151600",
      "end": "201303261200",
      "active": false
    },
    {
      "id": "00216",
      "areaName": "宮城県北部",
      "name": "鹿島台町平渡（臨）",
      "address": "鹿島台町平渡字西要害12-1(保健センター内)",
      "latitude": 38.48,
      "longitude": 141.09667,
      "start": "200307291200",
      "end": "200403011200",
      "active": false
    },
    {
      "id": "00217",
      "areaName": "宮城県北部",
      "name": "鳴子町鬼首",
      "address": "玉造郡鳴子町鬼首字原43-1",
      "latitude": 38.80167,
      "longitude": 140.64667,
      "start": "199608131000",
      "end": "199705061400",
      "active": false
    },
    {
      "id": "00218",
      "areaName": "宮城県北部",
      "name": "鳴子通報所",
      "address": "大崎市鳴子温泉",
      "latitude": 38.75333,
      "longitude": 140.705,
      "start": "19580801",
      "end": "不明",
      "active": false
    },
    {
      "id": "00219",
      "areaName": "宮城県南部",
      "name": "仙台空港",
      "address": "名取市下増田字南原",
      "latitude": 38.13833,
      "longitude": 140.92833,
      "start": "200804011200",
      "end": "",
      "active": true
    },
    {
      "id": "00220",
      "areaName": "宮城県南部",
      "name": "柴田町船岡",
      "address": "柴田郡柴田町船岡西1-6-26（資料展示館思源閣）",
      "latitude": 38.055,
      "longitude": 140.76333,
      "start": "199604011200",
      "end": "",
      "active": true
    },
    {
      "id": "00221",
      "areaName": "宮城県南部",
      "name": "丸森町上滝",
      "address": "伊具郡丸森町字上滝東23-1",
      "latitude": 37.87,
      "longitude": 140.79,
      "start": "199407151200",
      "end": "",
      "active": true
    },
    {
      "id": "00222",
      "areaName": "宮城県南部",
      "name": "金山測候所",
      "address": "伊具郡丸森町",
      "latitude": 37.87,
      "longitude": 140.76333,
      "start": "不明",
      "end": "不明",
      "active": false
    },
    {
      "id": "00223",
      "areaName": "宮城県中部",
      "name": "仙台青葉区大倉",
      "address": "仙台市青葉区大倉字高見沢26",
      "latitude": 38.36833,
      "longitude": 140.66,
      "start": "199407151200",
      "end": "",
      "active": true
    },
    {
      "id": "00224",
      "areaName": "宮城県中部",
      "name": "仙台宮城野区五輪",
      "address": "仙台市宮城野区五輪1-3-15（仙台管区気象台）",
      "latitude": 38.26167,
      "longitude": 140.89667,
      "start": "19261001",
      "end": "",
      "active": true
    },
    {
      "id": "00225",
      "areaName": "宮城県中部",
      "name": "石巻市泉町",
      "address": "石巻市泉町4-1-18（石巻特別地域気象観測所）",
      "latitude": 38.42833,
      "longitude": 141.3,
      "start": "188801",
      "end": "",
      "active": true
    },
    {
      "id": "00226",
      "areaName": "宮城県中部",
      "name": "石巻市大瓜",
      "address": "石巻市大瓜字鷲ノ巣42-2",
      "latitude": 38.45667,
      "longitude": 141.345,
      "start": "199407151200",
      "end": "",
      "active": true
    },
    {
      "id": "00227",
      "areaName": "宮城県中部",
      "name": "石巻市小渕浜",
      "address": "石巻市小渕浜牧ノ崎１（宮城県農業公社牡鹿牧場）",
      "latitude": 38.31,
      "longitude": 141.46667,
      "start": "201210021200",
      "end": "201311281400",
      "active": false
    },
    {
      "id": "00228",
      "areaName": "宮城県中部",
      "name": "松島町松島",
      "address": "宮城郡松島町松島字道珍浜10（松島第一小学校）",
      "latitude": 38.375,
      "longitude": 141.06667,
      "start": "199604011200",
      "end": "200908211500",
      "active": false
    },
    {
      "id": "00229",
      "areaName": "宮城県中部",
      "name": "松島町高城",
      "address": "宮城郡松島町高城字町71（松島町勤労青少年ホーム）",
      "latitude": 38.385,
      "longitude": 141.06833,
      "start": "201003311300",
      "end": "",
      "active": true
    },
    {
      "id": "00230",
      "areaName": "宮城県中部",
      "name": "松島町高城（旧）",
      "address": "宮城郡松島町高城字町10（松島町役場）",
      "latitude": 38.38167,
      "longitude": 141.06833,
      "start": "200908211500",
      "end": "201003311300",
      "active": false
    },
    {
      "id": "00231",
      "areaName": "秋田県沿岸北部",
      "name": "能代市緑町",
      "address": "能代市緑町2-22（能代山本広域市町村圏組合消防本部）",
      "latitude": 40.19833,
      "longitude": 140.03333,
      "start": "199604011200",
      "end": "",
      "active": true
    },
    {
      "id": "00232",
      "areaName": "秋田県沿岸北部",
      "name": "能代市常盤山谷",
      "address": "能代市常盤字小宮田23",
      "latitude": 40.27167,
      "longitude": 140.16167,
      "start": "201207031200",
      "end": "",
      "active": true
    },
    {
      "id": "00233",
      "areaName": "秋田県沿岸北部",
      "name": "男鹿市男鹿中（旧）",
      "address": "男鹿市男鹿中滝川字三森上台321-6",
      "latitude": 39.92,
      "longitude": 139.79667,
      "start": "199407151200",
      "end": "201203301200",
      "active": false
    },
    {
      "id": "00234",
      "areaName": "秋田県沿岸北部",
      "name": "男鹿市男鹿中",
      "address": "男鹿市男鹿中滝川三ツ森上台159-6",
      "latitude": 39.92,
      "longitude": 139.80667,
      "start": "201203301200",
      "end": "",
      "active": true
    },
    {
      "id": "00235",
      "areaName": "秋田県沿岸北部",
      "name": "五城目町西磯ノ目",
      "address": "南秋田郡五城目町西磯ノ目1-1-1（五城目町役場）",
      "latitude": 39.94333,
      "longitude": 140.11167,
      "start": "199604011200",
      "end": "",
      "active": true
    },
    {
      "id": "00236",
      "areaName": "秋田県沿岸南部",
      "name": "秋田市山王",
      "address": "秋田市山王7-1-4（秋田地方気象台）",
      "latitude": 39.71833,
      "longitude": 140.1,
      "start": "1921",
      "end": "",
      "active": true
    },
    {
      "id": "00237",
      "areaName": "秋田県沿岸南部",
      "name": "秋田市雄和女米木",
      "address": "秋田市雄和女米木字高麗沢地内",
      "latitude": 39.54167,
      "longitude": 140.205,
      "start": "199604011200",
      "end": "",
      "active": true
    },
    {
      "id": "00238",
      "areaName": "秋田県沿岸南部",
      "name": "由利本荘市石脇",
      "address": "由利本荘市石脇字下長老沼96-8",
      "latitude": 39.39833,
      "longitude": 140.04667,
      "start": "199604011200",
      "end": "",
      "active": true
    },
    {
      "id": "00239",
      "areaName": "秋田県内陸北部",
      "name": "大館市比内町味噌内",
      "address": "大館市比内町味噌内字二又沢47番2",
      "latitude": 40.19167,
      "longitude": 140.63333,
      "start": "199407151200",
      "end": "",
      "active": true
    },
    {
      "id": "00240",
      "areaName": "秋田県内陸北部",
      "name": "北秋田市花園町",
      "address": "北秋田市花園町19-1（北秋田市役所）",
      "latitude": 40.22667,
      "longitude": 140.37,
      "start": "199604011200",
      "end": "",
      "active": true
    },
    {
      "id": "00241",
      "areaName": "秋田県内陸北部",
      "name": "鷹巣通報所",
      "address": "秋田県鷹巣町東鷹巣105-9",
      "latitude": 40.23,
      "longitude": 140.37333,
      "start": "193801",
      "end": "不明",
      "active": false
    },
    {
      "id": "00242",
      "areaName": "秋田県内陸南部",
      "name": "横手市雄物川町今宿（旧）",
      "address": "横手市雄物川町今宿字鳴田1（横手市役所雄物川庁舎）",
      "latitude": 39.29167,
      "longitude": 140.43,
      "start": "199604011200",
      "end": "202111181200",
      "active": false
    },
    {
      "id": "00243",
      "areaName": "秋田県内陸南部",
      "name": "横手市雄物川町今宿",
      "address": "横手市雄物川町今宿字鳴田1（横手市役所雄物川庁舎）",
      "latitude": 39.29167,
      "longitude": 140.43,
      "start": "202111181200",
      "end": "",
      "active": true
    },
    {
      "id": "00244",
      "areaName": "秋田県内陸南部",
      "name": "横手通報所",
      "address": "秋田県横手市大樋18",
      "latitude": 39.32167,
      "longitude": 140.555,
      "start": "189501",
      "end": "不明",
      "active": false
    },
    {
      "id": "00245",
      "areaName": "秋田県内陸南部",
      "name": "湯沢市沖鶴",
      "address": "湯沢市沖鶴140（湯沢市総合体育館）",
      "latitude": 39.17333,
      "longitude": 140.48,
      "start": "199604011200",
      "end": "",
      "active": true
    },
    {
      "id": "00246",
      "areaName": "秋田県内陸南部",
      "name": "秋田美郷町六郷東根",
      "address": "仙北郡美郷町六郷東根字湯田沢",
      "latitude": 39.39833,
      "longitude": 140.63,
      "start": "199407151200",
      "end": "",
      "active": true
    },
    {
      "id": "00247",
      "areaName": "秋田県内陸南部",
      "name": "仙北市角館町東勝楽丁",
      "address": "仙北市角館町東勝楽丁19（仙北市役所角館庁舎）",
      "latitude": 39.59667,
      "longitude": 140.56167,
      "start": "199604011200",
      "end": "202011271200",
      "active": false
    },
    {
      "id": "00248",
      "areaName": "秋田県内陸南部",
      "name": "仙北市角館町中菅沢",
      "address": "仙北市角館町中菅沢91-1（仙北市立角館こども園）",
      "latitude": 39.59,
      "longitude": 140.56667,
      "start": "202011271200",
      "end": "",
      "active": true
    },
    {
      "id": "00249",
      "areaName": "秋田県内陸南部",
      "name": "鎧畑通報所",
      "address": "仙北市田沢湖田沢字鎧畑",
      "latitude": 39.76833,
      "longitude": 140.69167,
      "start": "19590101",
      "end": "不明",
      "active": false
    },
    {
      "id": "00250",
      "areaName": "山形県庄内",
      "name": "鶴岡市馬場町",
      "address": "鶴岡市馬場町9-25（鶴岡市役所）",
      "latitude": 38.72667,
      "longitude": 139.82667,
      "start": "199604011200",
      "end": "",
      "active": true
    },
    {
      "id": "00251",
      "areaName": "山形県庄内",
      "name": "鶴岡市温海川",
      "address": "鶴岡市温海川字越沢",
      "latitude": 38.59667,
      "longitude": 139.71,
      "start": "199407151200",
      "end": "",
      "active": true
    },
    {
      "id": "00252",
      "areaName": "山形県庄内",
      "name": "荒沢通報所",
      "address": "鶴岡市荒沢",
      "latitude": 38.50833,
      "longitude": 139.78,
      "start": "19561201",
      "end": "不明",
      "active": false
    },
    {
      "id": "00253",
      "areaName": "山形県庄内",
      "name": "酒田市亀ヶ崎（旧）",
      "address": "酒田市亀ヶ崎1-4-14（酒田測候所）",
      "latitude": 38.90833,
      "longitude": 139.84333,
      "start": "193701",
      "end": "200910011300",
      "active": false
    },
    {
      "id": "00254",
      "areaName": "山形県庄内",
      "name": "酒田市飛島",
      "address": "酒田市飛島字中村乙32-4",
      "latitude": 39.19833,
      "longitude": 139.55333,
      "start": "199407151200",
      "end": "",
      "active": true
    },
    {
      "id": "00255",
      "areaName": "山形県庄内",
      "name": "酒田市亀ケ崎",
      "address": "酒田市亀ケ崎1-4-14（酒田特別地域気象観測所）",
      "latitude": 38.90833,
      "longitude": 139.84333,
      "start": "200910011300",
      "end": "",
      "active": true
    },
    {
      "id": "00256",
      "areaName": "山形県庄内",
      "name": "遊佐町遊佐",
      "address": "飽海郡遊佐町遊佐字鶴田52-2（遊佐町生涯学習センター）",
      "latitude": 39.01167,
      "longitude": 139.90833,
      "start": "199604011200",
      "end": "",
      "active": true
    },
    {
      "id": "00257",
      "areaName": "山形県庄内",
      "name": "遊佐町小原田",
      "address": "飽海郡遊佐町小原田字北川原18-1（サン・スポーツランド遊佐）",
      "latitude": 39.01667,
      "longitude": 139.93,
      "start": "201207031200",
      "end": "",
      "active": true
    },
    {
      "id": "00258",
      "areaName": "山形県最上",
      "name": "新庄市東谷地田町",
      "address": "新庄市東谷地田町6-4（新庄特別地域気象観測所）",
      "latitude": 38.75667,
      "longitude": 140.31167,
      "start": "1957",
      "end": "",
      "active": true
    },
    {
      "id": "00259",
      "areaName": "山形県最上",
      "name": "山形金山町中田",
      "address": "最上郡金山町大字中田字杉沢325-4",
      "latitude": 38.92167,
      "longitude": 140.35667,
      "start": "199407151200",
      "end": "",
      "active": true
    },
    {
      "id": "00260",
      "areaName": "山形県村山",
      "name": "山形市緑町",
      "address": "山形市緑町1-5-77（山形地方気象台）",
      "latitude": 38.25667,
      "longitude": 140.34667,
      "start": "189001",
      "end": "",
      "active": true
    },
    {
      "id": "00261",
      "areaName": "山形県村山",
      "name": "河北町谷地",
      "address": "西村山郡河北町谷地戊81（河北町剥製動物館）",
      "latitude": 38.42667,
      "longitude": 140.31333,
      "start": "199604011200",
      "end": "202307131200",
      "active": false
    },
    {
      "id": "00262",
      "areaName": "山形県村山",
      "name": "河北町西里",
      "address": "西村山郡河北町大字西里字次部橋5564(治部橋水源地 敷地内）",
      "latitude": 38.415,
      "longitude": 140.28,
      "start": "202502181200",
      "end": "",
      "active": true
    },
    {
      "id": "00263",
      "areaName": "山形県村山",
      "name": "河北町吉田",
      "address": "西村山郡河北町大字吉田字馬場261番地（北谷地構造改善センター）",
      "latitude": 38.445,
      "longitude": 140.315,
      "start": "202307131200",
      "end": "202502181200",
      "active": false
    },
    {
      "id": "00264",
      "areaName": "山形県村山",
      "name": "尾花沢通報所",
      "address": "尾花沢市",
      "latitude": 38.60333,
      "longitude": 140.40667,
      "start": "19561201",
      "end": "不明",
      "active": false
    },
    {
      "id": "00265",
      "areaName": "山形県置賜",
      "name": "米沢市駅前",
      "address": "米沢市駅前4-3-51（米沢市立第一中学校）",
      "latitude": 37.91167,
      "longitude": 140.12167,
      "start": "199604011200",
      "end": "",
      "active": true
    },
    {
      "id": "00266",
      "areaName": "山形県置賜",
      "name": "米沢市アルカディア",
      "address": "米沢市アルカディア１丁目808-60（上郷ふれあい公園）",
      "latitude": 37.91333,
      "longitude": 140.14333,
      "start": "201207031200",
      "end": "",
      "active": true
    },
    {
      "id": "00267",
      "areaName": "山形県置賜",
      "name": "米沢通報所",
      "address": "米沢市",
      "latitude": 37.91167,
      "longitude": 140.10667,
      "start": "19561201",
      "end": "不明",
      "active": false
    },
    {
      "id": "00268",
      "areaName": "山形県置賜",
      "name": "山形小国町岩井沢",
      "address": "西置賜郡小国町大字岩井沢704（おぐに開発総合センター）",
      "latitude": 38.05667,
      "longitude": 139.74833,
      "start": "199604011200",
      "end": "",
      "active": true
    },
    {
      "id": "00269",
      "areaName": "山形県置賜",
      "name": "白鷹町黒鴨",
      "address": "西置賜郡白鷹町大字黒鴨字寺後443-2",
      "latitude": 38.225,
      "longitude": 140.06167,
      "start": "199407151200",
      "end": "",
      "active": true
    },
    {
      "id": "00270",
      "areaName": "福島県中通り",
      "name": "福島市松木町",
      "address": "福島市松木町1-9（福島地方気象台）",
      "latitude": 37.75833,
      "longitude": 140.47,
      "start": "1889",
      "end": "202303271200",
      "active": false
    },
    {
      "id": "00271",
      "areaName": "福島県中通り",
      "name": "福島市花園町",
      "address": "福島市花園町5-46（福島第二地方合同庁舎）",
      "latitude": 37.76167,
      "longitude": 140.47333,
      "start": "202303271200",
      "end": "",
      "active": true
    },
    {
      "id": "00272",
      "areaName": "福島県中通り",
      "name": "郡山市朝日",
      "address": "郡山市朝日1-23-7",
      "latitude": 37.40167,
      "longitude": 140.36,
      "start": "199604011200",
      "end": "",
      "active": true
    },
    {
      "id": "00273",
      "areaName": "福島県中通り",
      "name": "郡山通報所",
      "address": "福島県郡山市鶴見坦3-5-17",
      "latitude": 37.39167,
      "longitude": 140.35667,
      "start": "19580401",
      "end": "19770501",
      "active": false
    },
    {
      "id": "00274",
      "areaName": "福島県中通り",
      "name": "白河市郭内",
      "address": "白河市字郭内1-136（白河特別地域気象観測所）",
      "latitude": 37.13167,
      "longitude": 140.215,
      "start": "194101",
      "end": "",
      "active": true
    },
    {
      "id": "00275",
      "areaName": "福島県中通り",
      "name": "大玉村曲藤",
      "address": "安達郡大玉村字曲藤17-1",
      "latitude": 37.52167,
      "longitude": 140.33333,
      "start": "199407151200",
      "end": "201609161800",
      "active": false
    },
    {
      "id": "00276",
      "areaName": "福島県中通り",
      "name": "大玉村南小屋",
      "address": "安達郡大玉村大山字南小屋147-1",
      "latitude": 37.56,
      "longitude": 140.33333,
      "start": "201609161800",
      "end": "",
      "active": true
    },
    {
      "id": "00277",
      "areaName": "福島県中通り",
      "name": "棚倉町棚倉中居野",
      "address": "東白川郡棚倉町大字棚倉字中居野33",
      "latitude": 37.03,
      "longitude": 140.38,
      "start": "199604011200",
      "end": "",
      "active": true
    },
    {
      "id": "00278",
      "areaName": "福島県中通り",
      "name": "古殿町松川横川",
      "address": "石川郡古殿町大字松川字横川476(古殿町民運動場）",
      "latitude": 37.09167,
      "longitude": 140.56167,
      "start": "201207031200",
      "end": "",
      "active": true
    },
    {
      "id": "00279",
      "areaName": "福島県中通り",
      "name": "田村市船引町（旧）",
      "address": "田村市船引町船引字馬場川原20（田村市役所船引行政局）",
      "latitude": 37.44167,
      "longitude": 140.56833,
      "start": "199604011200",
      "end": "201503191200",
      "active": false
    },
    {
      "id": "00280",
      "areaName": "福島県中通り",
      "name": "田村市船引町",
      "address": "田村市船引町船引字畑添76-2（田村市役所）",
      "latitude": 37.44,
      "longitude": 140.57667,
      "start": "201503191200",
      "end": "",
      "active": true
    },
    {
      "id": "00281",
      "areaName": "福島県浜通り",
      "name": "いわき市小名浜",
      "address": "いわき市小名浜字船引場19（小名浜特別地域気象観測所）",
      "latitude": 36.94833,
      "longitude": 140.90333,
      "start": "192307",
      "end": "",
      "active": true
    },
    {
      "id": "00282",
      "areaName": "福島県浜通り",
      "name": "いわき市三和町",
      "address": "いわき市三和町合戸字内畑280（水石山公園）",
      "latitude": 37.105,
      "longitude": 140.79833,
      "start": "200707021200",
      "end": "",
      "active": true
    },
    {
      "id": "00283",
      "areaName": "福島県浜通り",
      "name": "川内村下川内",
      "address": "双葉郡川内村大字下川内字毛戸26-2",
      "latitude": 37.37,
      "longitude": 140.87167,
      "start": "199407151200",
      "end": "",
      "active": true
    },
    {
      "id": "00284",
      "areaName": "福島県浜通り",
      "name": "浪江町幾世橋",
      "address": "双葉郡浪江町大字幾世橋字六反田7-2",
      "latitude": 37.495,
      "longitude": 141,
      "start": "199604011200",
      "end": "",
      "active": true
    },
    {
      "id": "00285",
      "areaName": "福島県浜通り",
      "name": "南相馬市原町区三島町",
      "address": "南相馬市原町区三島町2-33",
      "latitude": 37.64167,
      "longitude": 140.955,
      "start": "199604011200",
      "end": "",
      "active": true
    },
    {
      "id": "00286",
      "areaName": "福島県浜通り",
      "name": "南相馬市鹿島区栃窪",
      "address": "南相馬市鹿島区栃窪今宮4（旧栃窪分校跡地）",
      "latitude": 37.725,
      "longitude": 140.88667,
      "start": "201307301200",
      "end": "",
      "active": true
    },
    {
      "id": "00287",
      "areaName": "福島県会津",
      "name": "会津若松市材木町（旧）",
      "address": "会津若松市材木町1-9-49（若松特別地域気象観測所）",
      "latitude": 37.48833,
      "longitude": 139.91,
      "start": "1953",
      "end": "201201051200",
      "active": false
    },
    {
      "id": "00288",
      "areaName": "福島県会津",
      "name": "会津若松市材木町",
      "address": "会津若松市材木町1-9-49（若松特別地域気象観測所）",
      "latitude": 37.48833,
      "longitude": 139.91,
      "start": "201201051200",
      "end": "",
      "active": true
    },
    {
      "id": "00289",
      "areaName": "福島県会津",
      "name": "只見通報所",
      "address": "福島県只見町大字只見字原673-6",
      "latitude": 37.34333,
      "longitude": 139.31333,
      "start": "19601101",
      "end": "19770501",
      "active": false
    },
    {
      "id": "00290",
      "areaName": "福島県会津",
      "name": "西会津町野沢（旧）",
      "address": "耶麻郡西会津町野沢字下小屋上乙3261（西会津町役場）",
      "latitude": 37.58833,
      "longitude": 139.64667,
      "start": "199604011200",
      "end": "201903141200",
      "active": false
    },
    {
      "id": "00291",
      "areaName": "福島県会津",
      "name": "西会津町野沢",
      "address": "耶麻郡西会津町野沢字下小屋上乙3308（西会津町役場）",
      "latitude": 37.58667,
      "longitude": 139.64833,
      "start": "201903141200",
      "end": "",
      "active": true
    },
    {
      "id": "00292",
      "areaName": "福島県会津",
      "name": "猪苗代町城南",
      "address": "耶麻郡猪苗代町字城南100",
      "latitude": 37.55833,
      "longitude": 140.105,
      "start": "199604011200",
      "end": "",
      "active": true
    },
    {
      "id": "00293",
      "areaName": "福島県会津",
      "name": "猪苗代測候所",
      "address": "耶麻郡猪猪苗代町東465",
      "latitude": 37.57,
      "longitude": 140.11333,
      "start": "19230201",
      "end": "19530715",
      "active": false
    },
    {
      "id": "00294",
      "areaName": "福島県会津",
      "name": "柳津町大成沢",
      "address": "河沼郡柳津町大字大成沢字下原180",
      "latitude": 37.41,
      "longitude": 139.70167,
      "start": "199407151200",
      "end": "",
      "active": true
    },
    {
      "id": "00295",
      "areaName": "福島県会津",
      "name": "南会津町田島（旧）",
      "address": "南会津郡南会津町田島字後原甲3531-1（南会津町役場）",
      "latitude": 37.2,
      "longitude": 139.77333,
      "start": "200603221200",
      "end": "201703081200",
      "active": false
    },
    {
      "id": "00296",
      "areaName": "福島県会津",
      "name": "南会津町田島",
      "address": "南会津郡南会津町田島字後原甲3531-1（南会津町役場）",
      "latitude": 37.2,
      "longitude": 139.77333,
      "start": "201703081200",
      "end": "",
      "active": true
    },
    {
      "id": "00297",
      "areaName": "茨城県北部",
      "name": "水戸市金町（旧）",
      "address": "水戸市金町1-4-6（水戸地方気象台）",
      "latitude": 36.38167,
      "longitude": 140.46833,
      "start": "18970101",
      "end": "201003311300",
      "active": false
    },
    {
      "id": "00298",
      "areaName": "茨城県北部",
      "name": "水戸市金町",
      "address": "水戸市金町1-4-6（水戸地方気象台）",
      "latitude": 36.38167,
      "longitude": 140.46833,
      "start": "201003311300",
      "end": "",
      "active": true
    },
    {
      "id": "00299",
      "areaName": "茨城県北部",
      "name": "常陸太田市町屋町",
      "address": "常陸太田市町屋町字北沢2415-2",
      "latitude": 36.61333,
      "longitude": 140.565,
      "start": "199407151200",
      "end": "",
      "active": true
    },
    {
      "id": "00300",
      "areaName": "茨城県北部",
      "name": "ひたちなか市山ノ上町",
      "address": "ひたちなか市山ノ上町6488(那珂湊第一小学校）",
      "latitude": 36.34,
      "longitude": 140.58667,
      "start": "201207031200",
      "end": "",
      "active": true
    },
    {
      "id": "00301",
      "areaName": "茨城県北部",
      "name": "常陸大宮市中富町",
      "address": "常陸大宮市中富町3135-6（常陸大宮市役所）",
      "latitude": 36.54333,
      "longitude": 140.41167,
      "start": "200011301200",
      "end": "",
      "active": true
    },
    {
      "id": "00302",
      "areaName": "茨城県北部",
      "name": "茨城大宮町常陸大宮（旧）",
      "address": "那珂郡大宮町388-2",
      "latitude": 36.55167,
      "longitude": 140.41167,
      "start": "199604011200",
      "end": "200011301200",
      "active": false
    },
    {
      "id": "00303",
      "areaName": "茨城県南部",
      "name": "土浦市大岩田",
      "address": "土浦市大岩田字西秋葉1734",
      "latitude": 36.06,
      "longitude": 140.20833,
      "start": "199604011200",
      "end": "200803240900",
      "active": false
    },
    {
      "id": "00304",
      "areaName": "茨城県南部",
      "name": "土浦市常名",
      "address": "土浦市常名3090（土浦市立都和南小学校）",
      "latitude": 36.10333,
      "longitude": 140.19,
      "start": "200804011200",
      "end": "",
      "active": true
    },
    {
      "id": "00305",
      "areaName": "茨城県南部",
      "name": "石岡市柿岡",
      "address": "石岡市柿岡595（地磁気観測所）",
      "latitude": 36.235,
      "longitude": 140.19,
      "start": "19260501",
      "end": "",
      "active": true
    },
    {
      "id": "00306",
      "areaName": "茨城県南部",
      "name": "八郷２",
      "address": "新治郡八郷町大字柿岡414",
      "latitude": 36.23167,
      "longitude": 140.19,
      "start": "199407151200",
      "end": "199504131500",
      "active": false
    },
    {
      "id": "00307",
      "areaName": "茨城県南部",
      "name": "筑波山測候所",
      "address": "つくば市筑波",
      "latitude": 36.22,
      "longitude": 140.09667,
      "start": "不明",
      "end": "197603310900",
      "active": false
    },
    {
      "id": "00308",
      "areaName": "茨城県南部",
      "name": "茨城鹿嶋市鉢形（旧）",
      "address": "鹿嶋市鉢形1527-4（鹿嶋市交流会館）",
      "latitude": 35.96667,
      "longitude": 140.64667,
      "start": "199604011200",
      "end": "201503261200",
      "active": false
    },
    {
      "id": "00309",
      "areaName": "茨城県南部",
      "name": "茨城鹿嶋市鉢形",
      "address": "鹿嶋市鉢形1527-4",
      "latitude": 35.96667,
      "longitude": 140.64667,
      "start": "201503261200",
      "end": "",
      "active": true
    },
    {
      "id": "00310",
      "areaName": "茨城県南部",
      "name": "潮来市堀之内",
      "address": "潮来市堀之内1009（牛堀中学校）",
      "latitude": 35.96667,
      "longitude": 140.52667,
      "start": "201207031200",
      "end": "",
      "active": true
    },
    {
      "id": "00311",
      "areaName": "茨城県南部",
      "name": "利根町布川",
      "address": "北相馬郡利根町大字布川841-1（利根町役場）",
      "latitude": 35.85833,
      "longitude": 140.13833,
      "start": "199604011200",
      "end": "",
      "active": true
    },
    {
      "id": "00312",
      "areaName": "茨城県南部",
      "name": "坂東市岩井",
      "address": "坂東市岩井5119（坂東市立岩井図書館）",
      "latitude": 36.04,
      "longitude": 139.88333,
      "start": "199604011200",
      "end": "",
      "active": true
    },
    {
      "id": "00313",
      "areaName": "茨城県南部",
      "name": "筑西市舟生",
      "address": "筑西市舟生1040（筑西市役所関城支所）",
      "latitude": 36.25167,
      "longitude": 139.93167,
      "start": "199604011200",
      "end": "",
      "active": true
    },
    {
      "id": "00314",
      "areaName": "茨城県南部",
      "name": "鉾田市鉾田",
      "address": "鉾田市鉾田1444-1（鉾田市役所）",
      "latitude": 36.15833,
      "longitude": 140.51667,
      "start": "199604011200",
      "end": "",
      "active": true
    },
    {
      "id": "00315",
      "areaName": "栃木県北部",
      "name": "日光市中宮祠（旧）",
      "address": "日光市中宮祠2478-12（日光特別地域気象観測所）",
      "latitude": 36.74,
      "longitude": 139.5,
      "start": "19431001",
      "end": "200908211500",
      "active": false
    },
    {
      "id": "00316",
      "areaName": "栃木県北部",
      "name": "日光市瀬川",
      "address": "日光市瀬川227（日光市立今市第二小学校）",
      "latitude": 36.735,
      "longitude": 139.68833,
      "start": "200211121200",
      "end": "",
      "active": true
    },
    {
      "id": "00317",
      "areaName": "栃木県北部",
      "name": "日光市中宮祠",
      "address": "日光市中宮祠2478-4（日光市役所中宮祠出張所）",
      "latitude": 36.74,
      "longitude": 139.495,
      "start": "201003301100",
      "end": "",
      "active": true
    },
    {
      "id": "00318",
      "areaName": "栃木県北部",
      "name": "日光市中宮祠（旧２）",
      "address": "日光市中宮祠2478（日光市消防本部日光消防署中宮祠分署）",
      "latitude": 36.74,
      "longitude": 139.495,
      "start": "200909011500",
      "end": "201003301100",
      "active": false
    },
    {
      "id": "00319",
      "areaName": "栃木県北部",
      "name": "今市市瀬川（旧）",
      "address": "今市市瀬川1334-1",
      "latitude": 36.72667,
      "longitude": 139.67667,
      "start": "199604011200",
      "end": "200211121200",
      "active": false
    },
    {
      "id": "00320",
      "areaName": "栃木県北部",
      "name": "足尾測候所",
      "address": "上都賀郡足尾町",
      "latitude": 36.65333,
      "longitude": 139.44667,
      "start": "不明",
      "end": "不明",
      "active": false
    },
    {
      "id": "00321",
      "areaName": "栃木県北部",
      "name": "五十里通報所",
      "address": "日光市五十里",
      "latitude": 36.89667,
      "longitude": 139.70167,
      "start": "19550601",
      "end": "不明",
      "active": false
    },
    {
      "id": "00322",
      "areaName": "栃木県北部",
      "name": "大田原市黒羽田町",
      "address": "大田原市黒羽田町848（大田原市役所黒羽支所）",
      "latitude": 36.86333,
      "longitude": 140.12167,
      "start": "199604011200",
      "end": "",
      "active": true
    },
    {
      "id": "00323",
      "areaName": "栃木県北部",
      "name": "大田原通報所",
      "address": "大田原市",
      "latitude": 36.86833,
      "longitude": 140.035,
      "start": "19550601",
      "end": "不明",
      "active": false
    },
    {
      "id": "00324",
      "areaName": "栃木県北部",
      "name": "那須塩原市蟇沼",
      "address": "那須塩原市蟇沼字原山2-4（北那須水道事務所折戸調整池）",
      "latitude": 36.97167,
      "longitude": 139.91667,
      "start": "199407151200",
      "end": "",
      "active": true
    },
    {
      "id": "00325",
      "areaName": "栃木県南部",
      "name": "宇都宮市明保野町",
      "address": "宇都宮市明保野町1-4（宇都宮地方気象台）",
      "latitude": 36.55,
      "longitude": 139.86833,
      "start": "19200101",
      "end": "",
      "active": true
    },
    {
      "id": "00326",
      "areaName": "栃木県南部",
      "name": "足利市名草上町",
      "address": "足利市名草上町4991-1",
      "latitude": 36.42833,
      "longitude": 139.45167,
      "start": "199407151200",
      "end": "200908211500",
      "active": false
    },
    {
      "id": "00327",
      "areaName": "栃木県南部",
      "name": "栃木市旭町",
      "address": "栃木市旭町12-2（栃木市図書館）",
      "latitude": 36.37667,
      "longitude": 139.73667,
      "start": "199604011200",
      "end": "",
      "active": true
    },
    {
      "id": "00328",
      "areaName": "栃木県南部",
      "name": "益子町益子",
      "address": "芳賀郡益子町大字益子2030（益子町役場）",
      "latitude": 36.46667,
      "longitude": 140.09333,
      "start": "199604011200",
      "end": "",
      "active": true
    },
    {
      "id": "00329",
      "areaName": "栃木県南部",
      "name": "那須烏山市中央",
      "address": "那須烏山市中央1-18-39（那須烏山市立図書館烏山図書館）",
      "latitude": 36.66,
      "longitude": 140.15167,
      "start": "199604011200",
      "end": "202103291200",
      "active": false
    },
    {
      "id": "00330",
      "areaName": "栃木県南部",
      "name": "那須烏山市神長",
      "address": "那須烏山市神長880-1（那須烏山消防署）",
      "latitude": 36.65833,
      "longitude": 140.13333,
      "start": "202103291200",
      "end": "",
      "active": true
    },
    {
      "id": "00331",
      "areaName": "群馬県北部",
      "name": "沼田市西倉内町（旧）",
      "address": "沼田市西倉内町746（沼田小学校）",
      "latitude": 36.64667,
      "longitude": 139.04333,
      "start": "199604011200",
      "end": "200908211500",
      "active": false
    },
    {
      "id": "00332",
      "areaName": "群馬県北部",
      "name": "沼田市西倉内町",
      "address": "沼田市西倉内町746（沼田小学校）",
      "latitude": 36.64667,
      "longitude": 139.04333,
      "start": "201003301100",
      "end": "",
      "active": true
    },
    {
      "id": "00333",
      "areaName": "群馬県北部",
      "name": "沼田市尾瀬高等学校",
      "address": "沼田市利根町平川1435-1（群馬県立尾瀬高等学校）",
      "latitude": 36.73,
      "longitude": 139.22333,
      "start": "202010291200",
      "end": "",
      "active": true
    },
    {
      "id": "00334",
      "areaName": "群馬県北部",
      "name": "沼田市東原新町",
      "address": "沼田市東原新町1801-40（東原庁舎）",
      "latitude": 36.65,
      "longitude": 139.05833,
      "start": "200910011300",
      "end": "201003301100",
      "active": false
    },
    {
      "id": "00335",
      "areaName": "群馬県北部",
      "name": "沼田通報所",
      "address": "群馬県沼田市高崎場町",
      "latitude": 36.65333,
      "longitude": 139.06333,
      "start": "19541101",
      "end": "19760510",
      "active": false
    },
    {
      "id": "00336",
      "areaName": "群馬県北部",
      "name": "中之条町日影",
      "address": "吾妻郡中之条町大字日影132-2",
      "latitude": 36.565,
      "longitude": 138.63667,
      "start": "199407151200",
      "end": "",
      "active": true
    },
    {
      "id": "00337",
      "areaName": "群馬県北部",
      "name": "片品村東小川",
      "address": "利根郡片品村大字東小川字大久保4853-2",
      "latitude": 36.77,
      "longitude": 139.245,
      "start": "199604011200",
      "end": "202010291200",
      "active": false
    },
    {
      "id": "00338",
      "areaName": "群馬県北部",
      "name": "須田貝通報所",
      "address": "みなかみ町須田貝",
      "latitude": 36.86833,
      "longitude": 139.06,
      "start": "19550601",
      "end": "不明",
      "active": false
    },
    {
      "id": "00339",
      "areaName": "群馬県北部",
      "name": "東吾妻町原町（旧）",
      "address": "吾妻郡東吾妻町大字原町字上之町594番2（東吾妻町役場）",
      "latitude": 36.57167,
      "longitude": 138.82667,
      "start": "199604011200",
      "end": "201903201200",
      "active": false
    },
    {
      "id": "00340",
      "areaName": "群馬県北部",
      "name": "東吾妻町原町",
      "address": "吾妻郡東吾妻町大字原町5031",
      "latitude": 36.57167,
      "longitude": 138.82167,
      "start": "201903201200",
      "end": "",
      "active": true
    },
    {
      "id": "00341",
      "areaName": "群馬県南部",
      "name": "前橋市昭和町（旧）",
      "address": "前橋市昭和町3-20-12（前橋地方気象台）",
      "latitude": 36.405,
      "longitude": 139.06167,
      "start": "18970101",
      "end": "201603291200",
      "active": false
    },
    {
      "id": "00342",
      "areaName": "群馬県南部",
      "name": "前橋市昭和町",
      "address": "前橋市昭和町3-20-2（前橋地方気象台）",
      "latitude": 36.405,
      "longitude": 139.06,
      "start": "201602171200",
      "end": "",
      "active": true
    },
    {
      "id": "00343",
      "areaName": "群馬県南部",
      "name": "桐生市織姫町",
      "address": "桐生市織姫町1-1（桐生市役所）",
      "latitude": 36.405,
      "longitude": 139.33167,
      "start": "199604011200",
      "end": "202202241200",
      "active": false
    },
    {
      "id": "00344",
      "areaName": "群馬県南部",
      "name": "桐生市錦町",
      "address": "桐生市錦町2-10（桐生市役所公用車駐車場）",
      "latitude": 36.40333,
      "longitude": 139.33167,
      "start": "202303161200",
      "end": "",
      "active": true
    },
    {
      "id": "00345",
      "areaName": "群馬県南部",
      "name": "桐生市美原町",
      "address": "桐生市美原町2-5（旧桐生市立昭和小学校）",
      "latitude": 36.40833,
      "longitude": 139.33,
      "start": "202202241200",
      "end": "202303161200",
      "active": false
    },
    {
      "id": "00346",
      "areaName": "群馬県南部",
      "name": "桐生通報所",
      "address": "桐生市",
      "latitude": 36.40333,
      "longitude": 139.33,
      "start": "19550601",
      "end": "不明",
      "active": false
    },
    {
      "id": "00347",
      "areaName": "群馬県南部",
      "name": "富岡市七日市",
      "address": "富岡市七日市400-1（富岡市立図書館）",
      "latitude": 36.26333,
      "longitude": 138.88,
      "start": "199604011200",
      "end": "",
      "active": true
    },
    {
      "id": "00348",
      "areaName": "群馬県南部",
      "name": "板倉町板倉（旧）",
      "address": "邑楽郡板倉町板倉2067（板倉町役場）",
      "latitude": 36.22333,
      "longitude": 139.61,
      "start": "199604011200",
      "end": "201903271200",
      "active": false
    },
    {
      "id": "00349",
      "areaName": "群馬県南部",
      "name": "板倉町板倉",
      "address": "邑楽郡板倉町板倉2682-1（板倉町役場）",
      "latitude": 36.225,
      "longitude": 139.60167,
      "start": "201903271200",
      "end": "",
      "active": true
    },
    {
      "id": "00350",
      "areaName": "埼玉県北部",
      "name": "熊谷市桜町",
      "address": "熊谷市桜町1-6-10（熊谷地方気象台）",
      "latitude": 36.15,
      "longitude": 139.38,
      "start": "18970101",
      "end": "",
      "active": true
    },
    {
      "id": "00351",
      "areaName": "埼玉県北部",
      "name": "本庄市児玉町（旧）",
      "address": "本庄市児玉町八幡山368（本庄市児玉総合支所）",
      "latitude": 36.19167,
      "longitude": 139.12833,
      "start": "199604011200",
      "end": "201303261200",
      "active": false
    },
    {
      "id": "00352",
      "areaName": "埼玉県北部",
      "name": "本庄市児玉町",
      "address": "本庄市児玉町八幡山368（本庄市児玉総合支所）",
      "latitude": 36.19,
      "longitude": 139.12833,
      "start": "201303261200",
      "end": "",
      "active": true
    },
    {
      "id": "00353",
      "areaName": "埼玉県北部",
      "name": "本庄熊谷分室",
      "address": "本庄市",
      "latitude": 36.25333,
      "longitude": 139.18,
      "start": "19380101",
      "end": "不明",
      "active": false
    },
    {
      "id": "00354",
      "areaName": "埼玉県北部",
      "name": "久喜市下早見",
      "address": "久喜市下早見字仏供田184-1",
      "latitude": 36.06,
      "longitude": 139.66667,
      "start": "199604011200",
      "end": "",
      "active": true
    },
    {
      "id": "00355",
      "areaName": "埼玉県北部",
      "name": "鳩山町大豆戸",
      "address": "比企郡鳩山町大字大豆戸184-16（鳩山町役場）",
      "latitude": 35.98167,
      "longitude": 139.33333,
      "start": "199604011200",
      "end": "",
      "active": true
    },
    {
      "id": "00356",
      "areaName": "埼玉県南部",
      "name": "川越市旭町",
      "address": "川越市旭町2-3-7（市立川越高校）",
      "latitude": 35.9,
      "longitude": 139.47333,
      "start": "199604011200",
      "end": "",
      "active": true
    },
    {
      "id": "00357",
      "areaName": "埼玉県南部",
      "name": "飯能市苅生",
      "address": "飯能市大字苅生字柏木山221-1",
      "latitude": 35.855,
      "longitude": 139.27833,
      "start": "199407151200",
      "end": "201903141200",
      "active": false
    },
    {
      "id": "00358",
      "areaName": "埼玉県南部",
      "name": "飯能市下直竹",
      "address": "飯能市大字下直竹38（南高麗小学校）",
      "latitude": 35.84,
      "longitude": 139.27833,
      "start": "202003121200",
      "end": "",
      "active": true
    },
    {
      "id": "00359",
      "areaName": "埼玉県南部",
      "name": "さいたま浦和区高砂",
      "address": "さいたま市浦和区高砂3-15-135（埼玉県庁）",
      "latitude": 35.85833,
      "longitude": 139.64833,
      "start": "199604011200",
      "end": "",
      "active": true
    },
    {
      "id": "00360",
      "areaName": "埼玉県秩父",
      "name": "秩父市近戸町",
      "address": "秩父市近戸町3-38(秩父測候所)",
      "latitude": 35.99333,
      "longitude": 139.075,
      "start": "192601",
      "end": "200001121200",
      "active": false
    },
    {
      "id": "00361",
      "areaName": "埼玉県秩父",
      "name": "秩父市上町",
      "address": "秩父市上町3-21-38（秩父特別地域気象観測所）",
      "latitude": 35.99,
      "longitude": 139.07333,
      "start": "200001121200",
      "end": "",
      "active": true
    },
    {
      "id": "00362",
      "areaName": "埼玉県秩父",
      "name": "小鹿野町両神薄",
      "address": "秩父郡小鹿野町両神薄9233（旧出原分校）",
      "latitude": 36.02,
      "longitude": 138.89833,
      "start": "199407151200",
      "end": "",
      "active": true
    },
    {
      "id": "00363",
      "areaName": "千葉県北東部",
      "name": "銚子市川口町",
      "address": "銚子市川口町2-6431（銚子地方気象台）",
      "latitude": 35.74,
      "longitude": 140.85833,
      "start": "190401",
      "end": "",
      "active": true
    },
    {
      "id": "00364",
      "areaName": "千葉県北東部",
      "name": "銚子市天王台",
      "address": "銚子市天王台9961（犬吠テストフィールド）",
      "latitude": 35.705,
      "longitude": 140.855,
      "start": "200707021200",
      "end": "201708221200",
      "active": false
    },
    {
      "id": "00365",
      "areaName": "千葉県北東部",
      "name": "銚子市小畑新町",
      "address": "銚子市小畑新町8198-1（銚子市市民センター）",
      "latitude": 35.72167,
      "longitude": 140.85833,
      "start": "201903141200",
      "end": "",
      "active": true
    },
    {
      "id": "00366",
      "areaName": "千葉県北東部",
      "name": "東金市東新宿",
      "address": "東金市東新宿1-3（東金北公園）",
      "latitude": 35.56,
      "longitude": 140.36833,
      "start": "199604011200",
      "end": "",
      "active": true
    },
    {
      "id": "00367",
      "areaName": "千葉県北東部",
      "name": "多古町多古",
      "address": "香取郡多古町多古584（多古町役場）",
      "latitude": 35.735,
      "longitude": 140.46667,
      "start": "199604011200",
      "end": "",
      "active": true
    },
    {
      "id": "00368",
      "areaName": "千葉県北東部",
      "name": "一宮町一宮（旧）",
      "address": "長生郡一宮町一宮2457（一宮町役場）",
      "latitude": 35.37333,
      "longitude": 140.36833,
      "start": "199604011200",
      "end": "201402281200",
      "active": false
    },
    {
      "id": "00369",
      "areaName": "千葉県北東部",
      "name": "一宮町一宮",
      "address": "長生郡一宮町一宮字反町2464-1",
      "latitude": 35.37167,
      "longitude": 140.36833,
      "start": "201402281200",
      "end": "",
      "active": true
    },
    {
      "id": "00370",
      "areaName": "千葉県北東部",
      "name": "長柄町大津倉",
      "address": "長生郡長柄町大津倉220（旧長柄町立水上小学校）",
      "latitude": 35.42167,
      "longitude": 140.19833,
      "start": "199407151200",
      "end": "201904131200",
      "active": false
    },
    {
      "id": "00371",
      "areaName": "千葉県北東部",
      "name": "長南町総合グラウンド",
      "address": "長生郡長南町長南2148-2（長南町総合グラウンド）",
      "latitude": 35.385,
      "longitude": 140.235,
      "start": "201904131200",
      "end": "",
      "active": true
    },
    {
      "id": "00372",
      "areaName": "千葉県北東部",
      "name": "香取市佐原下川岸",
      "address": "香取市佐原イ4149-291",
      "latitude": 35.9,
      "longitude": 140.50333,
      "start": "199604011200",
      "end": "201106281300",
      "active": false
    },
    {
      "id": "00373",
      "areaName": "千葉県北東部",
      "name": "香取市佐原八日市場（旧）",
      "address": "香取市佐原イ2685（千葉県立佐原高等学校）",
      "latitude": 35.88833,
      "longitude": 140.505,
      "start": "201108021200",
      "end": "201201051200",
      "active": false
    },
    {
      "id": "00374",
      "areaName": "千葉県北東部",
      "name": "香取市佐原平田",
      "address": "香取市佐原イ平田2433（千葉県立佐原高等学校）",
      "latitude": 35.88667,
      "longitude": 140.50667,
      "start": "201201051200",
      "end": "",
      "active": true
    },
    {
      "id": "00375",
      "areaName": "千葉県北東部",
      "name": "山武市松尾町富士見台",
      "address": "山武市松尾町富士見台208-176（松尾運動公園第２駐車場）",
      "latitude": 35.64333,
      "longitude": 140.44833,
      "start": "201210021200",
      "end": "",
      "active": true
    },
    {
      "id": "00376",
      "areaName": "千葉県北西部",
      "name": "千葉中央区中央港（旧）",
      "address": "千葉市中央区中央港1-12-2（千葉特別地域気象観測所）",
      "latitude": 35.60333,
      "longitude": 140.10333,
      "start": "19530718",
      "end": "201105121300",
      "active": false
    },
    {
      "id": "00377",
      "areaName": "千葉県北西部",
      "name": "千葉中央区中央港",
      "address": "千葉市中央区中央港1-12-2（千葉特別地域気象観測所）",
      "latitude": 35.60333,
      "longitude": 140.105,
      "start": "201105121300",
      "end": "",
      "active": true
    },
    {
      "id": "00378",
      "areaName": "千葉県北西部",
      "name": "千葉美浜区ひび野",
      "address": "千葉市美浜区ひび野2-116（千葉県立幕張海浜公園管理事務所）",
      "latitude": 35.64333,
      "longitude": 140.04,
      "start": "201411271200",
      "end": "",
      "active": true
    },
    {
      "id": "00379",
      "areaName": "千葉県北西部",
      "name": "成田市花崎町",
      "address": "成田市花崎町760（成田市役所（公園））",
      "latitude": 35.77833,
      "longitude": 140.32,
      "start": "199604011200",
      "end": "201803221200",
      "active": false
    },
    {
      "id": "00380",
      "areaName": "千葉県北西部",
      "name": "成田国際空港",
      "address": "成田市古込字込前175-3（空港気象ドップラーレーダー局舎）",
      "latitude": 35.775,
      "longitude": 140.38167,
      "start": "200804011200",
      "end": "",
      "active": true
    },
    {
      "id": "00381",
      "areaName": "千葉県北西部",
      "name": "成田市名古屋",
      "address": "成田市名古屋1214（成田市立下総みどり学園）",
      "latitude": 35.86333,
      "longitude": 140.36167,
      "start": "201807121200",
      "end": "",
      "active": true
    },
    {
      "id": "00382",
      "areaName": "千葉県北西部",
      "name": "柏市千代田",
      "address": "柏市千代田2-8",
      "latitude": 35.85333,
      "longitude": 139.97667,
      "start": "199604011200",
      "end": "199907211200",
      "active": false
    },
    {
      "id": "00383",
      "areaName": "千葉県北西部",
      "name": "柏市旭町",
      "address": "柏市旭町7-4-81（気象大学校）",
      "latitude": 35.86,
      "longitude": 139.95833,
      "start": "199907211200",
      "end": "",
      "active": true
    },
    {
      "id": "00384",
      "areaName": "千葉県北西部",
      "name": "浦安市日の出",
      "address": "浦安市日の出4-1-1（浦安市日の出公民館）",
      "latitude": 35.645,
      "longitude": 139.92333,
      "start": "201411271200",
      "end": "",
      "active": true
    },
    {
      "id": "00385",
      "areaName": "千葉県南部",
      "name": "館山市長須賀（旧）",
      "address": "館山市長須賀76-1（館山特別地域気象観測所）",
      "latitude": 34.98667,
      "longitude": 139.865,
      "start": "192304",
      "end": "20090319",
      "active": false
    },
    {
      "id": "00386",
      "areaName": "千葉県南部",
      "name": "館山市長須賀",
      "address": "館山市長須賀76-1（館山特別地域気象観測所）",
      "latitude": 34.98667,
      "longitude": 139.865,
      "start": "20090319",
      "end": "",
      "active": true
    },
    {
      "id": "00387",
      "areaName": "千葉県南部",
      "name": "富崎測候所",
      "address": "館山市相浜280-1",
      "latitude": 34.92333,
      "longitude": 139.825,
      "start": "不明",
      "end": "19760331",
      "active": false
    },
    {
      "id": "00388",
      "areaName": "千葉県南部",
      "name": "木更津市潮見",
      "address": "木更津市潮見1-1",
      "latitude": 35.37667,
      "longitude": 139.915,
      "start": "199604011200",
      "end": "200608281200",
      "active": false
    },
    {
      "id": "00389",
      "areaName": "千葉県南部",
      "name": "木更津市太田",
      "address": "木更津市太田4-6（根田公園）",
      "latitude": 35.37833,
      "longitude": 139.945,
      "start": "200608281200",
      "end": "",
      "active": true
    },
    {
      "id": "00390",
      "areaName": "千葉県南部",
      "name": "勝浦市墨名",
      "address": "勝浦市墨名708-1（勝浦特別地域気象観測所）",
      "latitude": 35.15,
      "longitude": 140.31167,
      "start": "1926",
      "end": "",
      "active": true
    },
    {
      "id": "00391",
      "areaName": "千葉県南部",
      "name": "鴨川市八色",
      "address": "鴨川市八色字長尾作9-1（鴨川市役所）",
      "latitude": 35.11333,
      "longitude": 140.09833,
      "start": "199604011200",
      "end": "",
      "active": true
    },
    {
      "id": "00392",
      "areaName": "千葉県南部",
      "name": "鴨川市内浦",
      "address": "鴨川市内浦3231-6（千葉県立内浦山県民の森）",
      "latitude": 35.16,
      "longitude": 140.19833,
      "start": "201210021200",
      "end": "",
      "active": true
    },